{"features": [{"geometry": {"coordinates": [-69.245143, -19.555387], "type": "Point"}, "properties": {"id": "15", "name": "Jaiña"}, "type": "Feature"}, {"geometry": {"coordinates": [-69.225577, -19.551209], "type": "Point"}, "properties": {"id": "16", "name": "Illalla"}, "type": "Feature"}, {"geometry": {"coordinates": [-69.207822, -19.534267], "type": "Point"}, "properties": {"id": "17", "name": "Chiapa"}, "type": "Feature"}, {"geometry": {"coordinates": [-69.235849, -19.593531], "type": "Point"}, "properties": {"id": "18", "name": "Sotoca"}, "type": "Feature"}, {"geometry": {"coordinates": [-69.451414, -18.614258], "type": "Point"}, "properties": {"id": "19", "name": "Achuma"}, "type": "Feature"}, {"geometry": {"coordinates": [-69.453024, -18.622021], "type": "Point"}, "properties": {"id": "20", "name": "Cuilco"}, "type": "Feature"}, {"geometry": {"coordinates": [-69.443981, -18.62138], "type": "Point"}, "properties": {"id": "21", "name": "Upuya"}, "type": "Feature"}, {"geometry": {"coordinates": [-69.450063, -18.65837], "type": "Point"}, "properties": {"id": "22", "name": "Timalchaca"}, "type": "Feature"}, {"geometry": {"coordinates": [-69.506122, -18.623013], "type": "Point"}, "properties": {"id": "24", "name": "Chucasiña"}, "type": "Feature"}, {"geometry": {"coordinates": [-69.498199, -18.582212], "type": "Point"}, "properties": {"id": "25", "name": "Tignamar"}, "type": "Feature"}, {"geometry": {"coordinates": [-69.515063, -18.560879], "type": "Point"}, "properties": {"id": "26", "name": "Oxa"}, "type": "Feature"}, {"geometry": {"coordinates": [-69.526623, -18.549601], "type": "Point"}, "properties": {"id": "27", "name": "Estrella"}, "type": "Feature"}, {"geometry": {"coordinates": [-69.506649, -18.568183], "type": "Point"}, "properties": {"id": "28", "name": "San Ramon"}, "type": "Feature"}, {"geometry": {"coordinates": [-69.653298, -20.73963], "type": "Point"}, "properties": {"id": "35", "name": "Ex Oficina Victoria"}, "type": "Feature"}, {"geometry": {"coordinates": [-69.875682, -18.352202], "type": "Point"}, "properties": {"id": "46", "name": "Molinos"}, "type": "Feature"}, {"geometry": {"coordinates": [-69.958703, -18.359595], "type": "Point"}, "properties": {"id": "49", "name": "Central"}, "type": "Feature"}, {"geometry": {"coordinates": [-69.743638, -18.174256], "type": "Point"}, "properties": {"id": "50", "name": "Puro Chile"}, "type": "Feature"}, {"geometry": {"coordinates": [-69.338156, -19.569876], "type": "Point"}, "properties": {"id": "65", "name": "Quebrada de Aroma"}, "type": "Feature"}, {"geometry": {"coordinates": [-69.552581, -18.350222], "type": "Point"}, "properties": {"id": "68", "name": "Murmuntani Alto"}, "type": "Feature"}, {"geometry": {"coordinates": [-69.556079, -18.3565], "type": "Point"}, "properties": {"id": "69", "name": "Ventullo"}, "type": "Feature"}, {"geometry": {"coordinates": [-69.535285, -18.393557], "type": "Point"}, "properties": {"id": "74", "name": "Chapiquiña"}, "type": "Feature"}, {"geometry": {"coordinates": [-69.52805, -18.4297], "type": "Point"}, "properties": {"id": "77", "name": "Pachama"}, "type": "Feature"}, {"geometry": {"coordinates": [-69.51986, -18.467643], "type": "Point"}, "properties": {"id": "79", "name": "Belen"}, "type": "Feature"}, {"geometry": {"coordinates": [-69.51154, -18.456397], "type": "Point"}, "properties": {"id": "80", "name": "Opairumani"}, "type": "Feature"}, {"geometry": {"coordinates": [-69.513228, -18.46687], "type": "Point"}, "properties": {"id": "82", "name": "Quipaquipane"}, "type": "Feature"}, {"geometry": {"coordinates": [-69.493877, -18.523722], "type": "Point"}, "properties": {"id": "89", "name": "Chaijate"}, "type": "Feature"}, {"geometry": {"coordinates": [-69.506833, -18.518188], "type": "Point"}, "properties": {"id": "90", "name": "Chucurjalla"}, "type": "Feature"}, {"geometry": {"coordinates": [-69.958357, -19.458766], "type": "Point"}, "properties": {"id": "93", "name": "Tana"}, "type": "Feature"}, {"geometry": {"coordinates": [-69.948744, -19.551403], "type": "Point"}, "properties": {"id": "94", "name": "Tiliviche"}, "type": "Feature"}, {"geometry": {"coordinates": [-70.038008, -19.515112], "type": "Point"}, "properties": {"id": "96", "name": "Quiuña Bajo"}, "type": "Feature"}, {"geometry": {"coordinates": [-69.066673, -20.820304], "type": "Point"}, "properties": {"id": "99", "name": "Cahuisa"}, "type": "Feature"}, {"geometry": {"coordinates": [-69.059673, -20.928501], "type": "Point"}, "properties": {"id": "101", "name": "Guatacondo"}, "type": "Feature"}, {"geometry": {"coordinates": [-69.567747, -20.640208], "type": "Point"}, "properties": {"id": "106", "name": "Pique Chileno"}, "type": "Feature"}, {"geometry": {"coordinates": [-69.492718, -18.898357], "type": "Point"}, "properties": {"id": "107", "name": "Saguara"}, "type": "Feature"}, {"geometry": {"coordinates": [-69.442902, -18.842884], "type": "Point"}, "properties": {"id": "108", "name": "Sucuna"}, "type": "Feature"}, {"geometry": {"coordinates": [-69.509463, -18.946441], "type": "Point"}, "properties": {"id": "113", "name": "Illapata"}, "type": "Feature"}, {"geometry": {"coordinates": [-69.531637, -18.937303], "type": "Point"}, "properties": {"id": "114", "name": "Esquiña"}, "type": "Feature"}, {"geometry": {"coordinates": [-69.17034, -19.77939], "type": "Point"}, "properties": {"id": "123", "name": "Sibaya"}, "type": "Feature"}, {"geometry": {"coordinates": [-69.180001, -19.784507], "type": "Point"}, "properties": {"id": "124", "name": "Limaxiña"}, "type": "Feature"}, {"geometry": {"coordinates": [-69.223108, -19.793598], "type": "Point"}, "properties": {"id": "125", "name": "Guaviña"}, "type": "Feature"}, {"geometry": {"coordinates": [-69.273626, -19.812322], "type": "Point"}, "properties": {"id": "126", "name": "Mocha"}, "type": "Feature"}, {"geometry": {"coordinates": [-69.257315, -18.195425], "type": "Point"}, "properties": {"id": "135", "name": "Chingani"}, "type": "Feature"}, {"geometry": {"coordinates": [-68.598499, -19.856568], "type": "Point"}, "properties": {"id": "142", "name": "Cancosa"}, "type": "Feature"}, {"geometry": {"coordinates": [-70.213086, -19.597814], "type": "Point"}, "properties": {"id": "145", "name": "Pisagua"}, "type": "Feature"}, {"geometry": {"coordinates": [-69.947118, -19.677358], "type": "Point"}, "properties": {"id": "147", "name": "Dolores"}, "type": "Feature"}, {"geometry": {"coordinates": [-69.791146, -19.864728], "type": "Point"}, "properties": {"id": "150", "name": "Vista Hermosa"}, "type": "Feature"}, {"geometry": {"coordinates": [-69.595093, -18.334471], "type": "Point"}, "properties": {"id": "165", "name": "Zapahuira"}, "type": "Feature"}, {"geometry": {"coordinates": [-69.624027, -18.406676], "type": "Point"}, "properties": {"id": "170", "name": "Copaquilla"}, "type": "Feature"}, {"geometry": {"coordinates": [-69.601816, -18.263811], "type": "Point"}, "properties": {"id": "173", "name": "Socoroma"}, "type": "Feature"}, {"geometry": {"coordinates": [-69.724445, -17.775144], "type": "Point"}, "properties": {"id": "175", "name": "Tacora"}, "type": "Feature"}, {"geometry": {"coordinates": [-69.687621, -18.859396], "type": "Point"}, "properties": {"id": "176", "name": "Chucuyo"}, "type": "Feature"}, {"geometry": {"coordinates": [-69.849504, -19.004275], "type": "Point"}, "properties": {"id": "178", "name": "Taltape"}, "type": "Feature"}, {"geometry": {"coordinates": [-69.798211, -19.264888], "type": "Point"}, "properties": {"id": "223", "name": "Suca"}, "type": "Feature"}, {"geometry": {"coordinates": [-69.6847, -19.181199], "type": "Point"}, "properties": {"id": "230", "name": "Miñimiñe"}, "type": "Feature"}, {"geometry": {"coordinates": [-69.598068, -19.091625], "type": "Point"}, "properties": {"id": "234", "name": "Miñita"}, "type": "Feature"}, {"geometry": {"coordinates": [-69.608124, -19.108711], "type": "Point"}, "properties": {"id": "235", "name": "Pampa del Fraile"}, "type": "Feature"}, {"geometry": {"coordinates": [-69.545186, -19.115594], "type": "Point"}, "properties": {"id": "236", "name": "Champaja"}, "type": "Feature"}, {"geometry": {"coordinates": [-69.709013, -18.499595], "type": "Point"}, "properties": {"id": "238", "name": "Cabuza"}, "type": "Feature"}, {"geometry": {"coordinates": [-69.765664, -18.553785], "type": "Point"}, "properties": {"id": "239", "name": "Santuario Livilcar"}, "type": "Feature"}, {"geometry": {"coordinates": [-69.827372, -18.588129], "type": "Point"}, "properties": {"id": "240", "name": "Ausipar Paradero"}, "type": "Feature"}, {"geometry": {"coordinates": [-69.7804, -18.570396], "type": "Point"}, "properties": {"id": "242", "name": "Humagata"}, "type": "Feature"}, {"geometry": {"coordinates": [-69.941646, -18.579636], "type": "Point"}, "properties": {"id": "243", "name": "Albarracín"}, "type": "Feature"}, {"geometry": {"coordinates": [-69.977681, -18.576527], "type": "Point"}, "properties": {"id": "244", "name": "Pampa Algodonal"}, "type": "Feature"}, {"geometry": {"coordinates": [-69.988744, -18.583861], "type": "Point"}, "properties": {"id": "245", "name": "Surire"}, "type": "Feature"}, {"geometry": {"coordinates": [-70.000014, -18.584841], "type": "Point"}, "properties": {"id": "246", "name": "Pan de Azúcar"}, "type": "Feature"}, {"geometry": {"coordinates": [-69.18555, -20.133101], "type": "Point"}, "properties": {"id": "262", "name": "Macaya"}, "type": "Feature"}, {"geometry": {"coordinates": [-69.21566, -20.074786], "type": "Point"}, "properties": {"id": "269", "name": "Mamiña"}, "type": "Feature"}, {"geometry": {"coordinates": [-69.205659, -20.01501], "type": "Point"}, "properties": {"id": "270", "name": "Parca"}, "type": "Feature"}, {"geometry": {"coordinates": [-69.36229, -20.066294], "type": "Point"}, "properties": {"id": "272", "name": "Quipisca"}, "type": "Feature"}, {"geometry": {"coordinates": [-69.120907, -19.985446], "type": "Point"}, "properties": {"id": "274", "name": "Bajada Uno"}, "type": "Feature"}, {"geometry": {"coordinates": [-69.210627, -20.095833], "type": "Point"}, "properties": {"id": "278", "name": "Quebrada Imagua"}, "type": "Feature"}, {"geometry": {"coordinates": [-69.208518, -18.878265], "type": "Point"}, "properties": {"id": "291", "name": "Parcohaylla"}, "type": "Feature"}, {"geometry": {"coordinates": [-69.453669, -17.95711], "type": "Point"}, "properties": {"id": "293", "name": "Colpitas"}, "type": "Feature"}, {"geometry": {"coordinates": [-69.322118, -17.912209], "type": "Point"}, "properties": {"id": "294", "name": "Nasahuento"}, "type": "Feature"}, {"geometry": {"coordinates": [-69.332128, -17.898491], "type": "Point"}, "properties": {"id": "296", "name": "Choyota"}, "type": "Feature"}, {"geometry": {"coordinates": [-69.348366, -17.899419], "type": "Point"}, "properties": {"id": "297", "name": "Cayco"}, "type": "Feature"}, {"geometry": {"coordinates": [-69.345351, -17.760719], "type": "Point"}, "properties": {"id": "303", "name": "Guacollo"}, "type": "Feature"}, {"geometry": {"coordinates": [-69.331927, -17.790396], "type": "Point"}, "properties": {"id": "305", "name": "Uchusgualla"}, "type": "Feature"}, {"geometry": {"coordinates": [-69.428588, -17.81221], "type": "Point"}, "properties": {"id": "309", "name": "Challepiña"}, "type": "Feature"}, {"geometry": {"coordinates": [-69.424327, -17.764512], "type": "Point"}, "properties": {"id": "310", "name": "Cosapilla"}, "type": "Feature"}, {"geometry": {"coordinates": [-69.57981, -17.867062], "type": "Point"}, "properties": {"id": "313", "name": "Pauta"}, "type": "Feature"}, {"geometry": {"coordinates": [-69.138324, -19.864145], "type": "Point"}, "properties": {"id": "317", "name": "Coscaya"}, "type": "Feature"}, {"geometry": {"coordinates": [-69.18104, -19.869606], "type": "Point"}, "properties": {"id": "321", "name": "Poroma"}, "type": "Feature"}, {"geometry": {"coordinates": [-69.299514, -19.840755], "type": "Point"}, "properties": {"id": "322", "name": "Puchurca"}, "type": "Feature"}, {"geometry": {"coordinates": [-69.343765, -19.855499], "type": "Point"}, "properties": {"id": "323", "name": "Laonzana"}, "type": "Feature"}, {"geometry": {"coordinates": [-69.362738, -19.864547], "type": "Point"}, "properties": {"id": "326", "name": "El Molino"}, "type": "Feature"}, {"geometry": {"coordinates": [-69.463125, -19.883597], "type": "Point"}, "properties": {"id": "327", "name": "Carora Bajo"}, "type": "Feature"}, {"geometry": {"coordinates": [-69.472923, -19.895662], "type": "Point"}, "properties": {"id": "330", "name": "Mages"}, "type": "Feature"}, {"geometry": {"coordinates": [-69.475771, -19.898173], "type": "Point"}, "properties": {"id": "331", "name": "Caigua"}, "type": "Feature"}, {"geometry": {"coordinates": [-69.491781, -19.908876], "type": "Point"}, "properties": {"id": "332", "name": "Quillaguasa"}, "type": "Feature"}, {"geometry": {"coordinates": [-69.502656, -19.922951], "type": "Point"}, "properties": {"id": "333", "name": "Calacala"}, "type": "Feature"}, {"geometry": {"coordinates": [-69.386875, -19.863993], "type": "Point"}, "properties": {"id": "334", "name": "Mullimulli"}, "type": "Feature"}, {"geometry": {"coordinates": [-69.391657, -19.859616], "type": "Point"}, "properties": {"id": "335", "name": "La Apacheta"}, "type": "Feature"}, {"geometry": {"coordinates": [-69.424669, -19.860045], "type": "Point"}, "properties": {"id": "339", "name": "Icata"}, "type": "Feature"}, {"geometry": {"coordinates": [-69.448829, -19.867878], "type": "Point"}, "properties": {"id": "340", "name": "Pachica"}, "type": "Feature"}, {"geometry": {"coordinates": [-69.535186, -19.949583], "type": "Point"}, "properties": {"id": "343", "name": "Guarasiña"}, "type": "Feature"}, {"geometry": {"coordinates": [-69.51095, -19.922956], "type": "Point"}, "properties": {"id": "347", "name": "Tarapacá"}, "type": "Feature"}, {"geometry": {"coordinates": [-68.598781, -19.543339], "type": "Point"}, "properties": {"id": "350", "name": "Yapucagua"}, "type": "Feature"}, {"geometry": {"coordinates": [-68.64876, -19.592288], "type": "Point"}, "properties": {"id": "351", "name": "Villablanca"}, "type": "Feature"}, {"geometry": {"coordinates": [-68.640023, -19.640661], "type": "Point"}, "properties": {"id": "361", "name": "Chulluncane"}, "type": "Feature"}, {"geometry": {"coordinates": [-68.72151, -19.524032], "type": "Point"}, "properties": {"id": "363", "name": "Ancuaque"}, "type": "Feature"}, {"geometry": {"coordinates": [-68.644009, -19.468676], "type": "Point"}, "properties": {"id": "371", "name": "Cariquima"}, "type": "Feature"}, {"geometry": {"coordinates": [-68.506788, -19.423149], "type": "Point"}, "properties": {"id": "372", "name": "Panavinto"}, "type": "Feature"}, {"geometry": {"coordinates": [-68.58077, -19.442463], "type": "Point"}, "properties": {"id": "380", "name": "Chijo"}, "type": "Feature"}, {"geometry": {"coordinates": [-68.58277, -19.399429], "type": "Point"}, "properties": {"id": "382", "name": "Ancovinto"}, "type": "Feature"}, {"geometry": {"coordinates": [-69.200802, -18.055225], "type": "Point"}, "properties": {"id": "387", "name": "Caquena"}, "type": "Feature"}, {"geometry": {"coordinates": [-69.199146, -18.083206], "type": "Point"}, "properties": {"id": "395", "name": "Pisacollo"}, "type": "Feature"}, {"geometry": {"coordinates": [-69.197659, -18.095404], "type": "Point"}, "properties": {"id": "396", "name": "Pisarata"}, "type": "Feature"}, {"geometry": {"coordinates": [-69.195939, -18.04133], "type": "Point"}, "properties": {"id": "402", "name": "Vilque"}, "type": "Feature"}, {"geometry": {"coordinates": [-69.236464, -18.004157], "type": "Point"}, "properties": {"id": "406", "name": "Cacani"}, "type": "Feature"}, {"geometry": {"coordinates": [-69.263917, -17.990165], "type": "Point"}, "properties": {"id": "407", "name": "Achacuri"}, "type": "Feature"}, {"geometry": {"coordinates": [-69.241642, -18.012076], "type": "Point"}, "properties": {"id": "412", "name": "Colpacagua"}, "type": "Feature"}, {"geometry": {"coordinates": [-69.223294, -18.030931], "type": "Point"}, "properties": {"id": "414", "name": "Colpa"}, "type": "Feature"}, {"geometry": {"coordinates": [-69.226516, -18.057472], "type": "Point"}, "properties": {"id": "415", "name": "Lipiche"}, "type": "Feature"}, {"geometry": {"coordinates": [-69.265152, -18.064239], "type": "Point"}, "properties": {"id": "416", "name": "Peña Blanca"}, "type": "Feature"}, {"geometry": {"coordinates": [-69.296254, -18.048948], "type": "Point"}, "properties": {"id": "418", "name": "Jayllave"}, "type": "Feature"}, {"geometry": {"coordinates": [-69.277986, -18.116952], "type": "Point"}, "properties": {"id": "419", "name": "Vilacollo"}, "type": "Feature"}, {"geometry": {"coordinates": [-69.258089, -18.106756], "type": "Point"}, "properties": {"id": "420", "name": "Achacala"}, "type": "Feature"}, {"geometry": {"coordinates": [-69.249657, -18.112866], "type": "Point"}, "properties": {"id": "421", "name": "Jupaje"}, "type": "Feature"}, {"geometry": {"coordinates": [-69.266626, -18.202776], "type": "Point"}, "properties": {"id": "431", "name": "Parinacota"}, "type": "Feature"}, {"geometry": {"coordinates": [-69.768322, -19.99598], "type": "Point"}, "properties": {"id": "434", "name": "Huara"}, "type": "Feature"}, {"geometry": {"coordinates": [-69.613027, -18.200406], "type": "Point"}, "properties": {"id": "439", "name": "Curaguara"}, "type": "Feature"}, {"geometry": {"coordinates": [-69.595777, -18.204526], "type": "Point"}, "properties": {"id": "440", "name": "Lluscuma"}, "type": "Feature"}, {"geometry": {"coordinates": [-69.559594, -18.195667], "type": "Point"}, "properties": {"id": "441", "name": "Putre"}, "type": "Feature"}, {"geometry": {"coordinates": [-69.531186, -18.19252], "type": "Point"}, "properties": {"id": "444", "name": "Ancoma"}, "type": "Feature"}, {"geometry": {"coordinates": [-69.548169, -18.182787], "type": "Point"}, "properties": {"id": "445", "name": "Vilaque"}, "type": "Feature"}, {"geometry": {"coordinates": [-69.562426, -18.181789], "type": "Point"}, "properties": {"id": "446", "name": "Bendecita"}, "type": "Feature"}, {"geometry": {"coordinates": [-69.492762, -18.185687], "type": "Point"}, "properties": {"id": "452", "name": "Pioco"}, "type": "Feature"}, {"geometry": {"coordinates": [-69.739762, -18.829502], "type": "Point"}, "properties": {"id": "473", "name": "Incauta"}, "type": "Feature"}, {"geometry": {"coordinates": [-69.730952, -18.824516], "type": "Point"}, "properties": {"id": "475", "name": "Marquirave"}, "type": "Feature"}, {"geometry": {"coordinates": [-69.722413, -18.82419], "type": "Point"}, "properties": {"id": "476", "name": "Guatanave"}, "type": "Feature"}, {"geometry": {"coordinates": [-69.712598, -18.819087], "type": "Point"}, "properties": {"id": "477", "name": "Guañacagua"}, "type": "Feature"}, {"geometry": {"coordinates": [-69.666811, -18.82894], "type": "Point"}, "properties": {"id": "480", "name": "Inquieta"}, "type": "Feature"}, {"geometry": {"coordinates": [-69.639773, -18.850914], "type": "Point"}, "properties": {"id": "481", "name": "Mollegrande"}, "type": "Feature"}, {"geometry": {"coordinates": [-69.569251, -18.751474], "type": "Point"}, "properties": {"id": "490", "name": "Vilcane"}, "type": "Feature"}, {"geometry": {"coordinates": [-69.57428, -18.730722], "type": "Point"}, "properties": {"id": "492", "name": "Cainilla"}, "type": "Feature"}, {"geometry": {"coordinates": [-69.460944, -18.801465], "type": "Point"}, "properties": {"id": "494", "name": "Saitocoya"}, "type": "Feature"}, {"geometry": {"coordinates": [-69.406186, -17.749228], "type": "Point"}, "properties": {"id": "496", "name": "Pucoyo"}, "type": "Feature"}, {"geometry": {"coordinates": [-69.412695, -17.758539], "type": "Point"}, "properties": {"id": "497", "name": "Castilluma"}, "type": "Feature"}, {"geometry": {"coordinates": [-69.431806, -17.781012], "type": "Point"}, "properties": {"id": "499", "name": "Limani"}, "type": "Feature"}, {"geometry": {"coordinates": [-69.452665, -17.712048], "type": "Point"}, "properties": {"id": "500", "name": "Guayancallane"}, "type": "Feature"}], "type": "FeatureCollection"}