{"features": [{"geometry": {"coordinates": [-70.284805, -18.446891], "type": "Point"}, "properties": {"id": "1", "name": "Quebrada Encantada"}, "type": "Feature"}, {"geometry": {"coordinates": [-70.315975, -18.397925], "type": "Point"}, "properties": {"id": "2", "name": "Gallinazos"}, "type": "Feature"}, {"geometry": {"coordinates": [-70.297627, -18.396119], "type": "Point"}, "properties": {"id": "3", "name": "Puerta Las Am\u00daricas"}, "type": "Feature"}, {"geometry": {"coordinates": [-70.29213, -18.39777], "type": "Point"}, "properties": {"id": "4", "name": "Valle Hermoso"}, "type": "Feature"}, {"geometry": {"coordinates": [-70.239376, -18.410494], "type": "Point"}, "properties": {"id": "5", "name": "Porvenir"}, "type": "Feature"}, {"geometry": {"coordinates": [-70.229871, -18.412289], "type": "Point"}, "properties": {"id": "6", "name": "El Morro"}, "type": "Feature"}, {"geometry": {"coordinates": [-70.185316, -18.409624], "type": "Point"}, "properties": {"id": "7", "name": "Alberto Jordan"}, "type": "Feature"}, {"geometry": {"coordinates": [-70.207892, -18.412116], "type": "Point"}, "properties": {"id": "8", "name": "La Libanesa"}, "type": "Feature"}, {"geometry": {"coordinates": [-70.133316, -18.40236], "type": "Point"}, "properties": {"id": "9", "name": "Molle Pampa (p)"}, "type": "Feature"}, {"geometry": {"coordinates": [-70.143448, -18.403668], "type": "Point"}, "properties": {"id": "10", "name": "Asentamiento Alberto Jord\u00dfn"}, "type": "Feature"}, {"geometry": {"coordinates": [-70.122133, -18.408652], "type": "Point"}, "properties": {"id": "11", "name": "Rosario"}, "type": "Feature"}, {"geometry": {"coordinates": [-70.095102, -18.434016], "type": "Point"}, "properties": {"id": "12", "name": "Las Palmas"}, "type": "Feature"}, {"geometry": {"coordinates": [-69.986165, -18.455725], "type": "Point"}, "properties": {"id": "13", "name": "Santa Rosa"}, "type": "Feature"}, {"geometry": {"coordinates": [-69.995424, -18.440328], "type": "Point"}, "properties": {"id": "14", "name": "Linderos"}, "type": "Feature"}, {"geometry": {"coordinates": [-69.245143, -19.555387], "type": "Point"}, "properties": {"id": "15", "name": "Jai\u00b1a"}, "type": "Feature"}, {"geometry": {"coordinates": [-69.225577, -19.551209], "type": "Point"}, "properties": {"id": "16", "name": "Illalla"}, "type": "Feature"}, {"geometry": {"coordinates": [-69.207822, -19.534267], "type": "Point"}, "properties": {"id": "17", "name": "Chiapa"}, "type": "Feature"}, {"geometry": {"coordinates": [-69.235849, -19.593531], "type": "Point"}, "properties": {"id": "18", "name": "Sotoca"}, "type": "Feature"}, {"geometry": {"coordinates": [-69.451414, -18.614258], "type": "Point"}, "properties": {"id": "19", "name": "Achuma"}, "type": "Feature"}, {"geometry": {"coordinates": [-69.453024, -18.622021], "type": "Point"}, "properties": {"id": "20", "name": "Cuilco"}, "type": "Feature"}, {"geometry": {"coordinates": [-69.443981, -18.62138], "type": "Point"}, "properties": {"id": "21", "name": "Upuya"}, "type": "Feature"}, {"geometry": {"coordinates": [-69.450063, -18.65837], "type": "Point"}, "properties": {"id": "22", "name": "Timalchaca"}, "type": "Feature"}, {"geometry": {"coordinates": [-69.455972, -18.656641], "type": "Point"}, "properties": {"id": "23", "name": "Bausire"}, "type": "Feature"}, {"geometry": {"coordinates": [-69.506122, -18.623013], "type": "Point"}, "properties": {"id": "24", "name": "Chucasi\u00b1a"}, "type": "Feature"}, {"geometry": {"coordinates": [-69.498199, -18.582212], "type": "Point"}, "properties": {"id": "25", "name": "Tignamar"}, "type": "Feature"}, {"geometry": {"coordinates": [-69.515063, -18.560879], "type": "Point"}, "properties": {"id": "26", "name": "Oxa"}, "type": "Feature"}, {"geometry": {"coordinates": [-69.526623, -18.549601], "type": "Point"}, "properties": {"id": "27", "name": "Estrella"}, "type": "Feature"}, {"geometry": {"coordinates": [-69.506649, -18.568183], "type": "Point"}, "properties": {"id": "28", "name": "San Ramon"}, "type": "Feature"}, {"geometry": {"coordinates": [-69.611183, -18.440905], "type": "Point"}, "properties": {"id": "29", "name": "Saxamar"}, "type": "Feature"}, {"geometry": {"coordinates": [-69.461228, -18.577661], "type": "Point"}, "properties": {"id": "30", "name": "Taipicahue"}, "type": "Feature"}, {"geometry": {"coordinates": [-69.446707, -18.565727], "type": "Point"}, "properties": {"id": "31", "name": "Tangane"}, "type": "Feature"}, {"geometry": {"coordinates": [-69.692551, -20.814266], "type": "Point"}, "properties": {"id": "32", "name": "Subestaci\u00ben Lagunas"}, "type": "Feature"}, {"geometry": {"coordinates": [-69.640999, -20.775239], "type": "Point"}, "properties": {"id": "33", "name": "Bellavista"}, "type": "Feature"}, {"geometry": {"coordinates": [-69.705324, -20.70125], "type": "Point"}, "properties": {"id": "34", "name": "Campamento Victoria"}, "type": "Feature"}, {"geometry": {"coordinates": [-69.653298, -20.73963], "type": "Point"}, "properties": {"id": "35", "name": "Ex Oficina Victoria"}, "type": "Feature"}, {"geometry": {"coordinates": [-70.00048, -18.45544], "type": "Point"}, "properties": {"id": "36", "name": "Poconchile"}, "type": "Feature"}, {"geometry": {"coordinates": [-69.997369, -18.407799], "type": "Point"}, "properties": {"id": "37", "name": "Santa Rosa (p)"}, "type": "Feature"}, {"geometry": {"coordinates": [-70.043778, -18.407012], "type": "Point"}, "properties": {"id": "38", "name": "Guanta"}, "type": "Feature"}, {"geometry": {"coordinates": [-69.980797, -18.404255], "type": "Point"}, "properties": {"id": "39", "name": "Arancha"}, "type": "Feature"}, {"geometry": {"coordinates": [-69.957853, -18.39073], "type": "Point"}, "properties": {"id": "40", "name": "Boca Negra"}, "type": "Feature"}, {"geometry": {"coordinates": [-69.942177, -18.37912], "type": "Point"}, "properties": {"id": "41", "name": "Buena Vista"}, "type": "Feature"}, {"geometry": {"coordinates": [-69.919912, -18.374462], "type": "Point"}, "properties": {"id": "42", "name": "Guanta Sur"}, "type": "Feature"}, {"geometry": {"coordinates": [-69.907434, -18.372368], "type": "Point"}, "properties": {"id": "43", "name": "Tocontase"}, "type": "Feature"}, {"geometry": {"coordinates": [-69.90109, -18.371517], "type": "Point"}, "properties": {"id": "44", "name": "Chapisca"}, "type": "Feature"}, {"geometry": {"coordinates": [-69.889139, -18.361484], "type": "Point"}, "properties": {"id": "45", "name": "La Palma"}, "type": "Feature"}, {"geometry": {"coordinates": [-69.875682, -18.352202], "type": "Point"}, "properties": {"id": "46", "name": "Molinos"}, "type": "Feature"}, {"geometry": {"coordinates": [-69.84039, -18.472753], "type": "Point"}, "properties": {"id": "47", "name": "Quebrada Cardones"}, "type": "Feature"}, {"geometry": {"coordinates": [-69.876118, -18.458232], "type": "Point"}, "properties": {"id": "48", "name": "Cuesta El \u00dfguila"}, "type": "Feature"}, {"geometry": {"coordinates": [-69.958703, -18.359595], "type": "Point"}, "properties": {"id": "49", "name": "Central"}, "type": "Feature"}, {"geometry": {"coordinates": [-69.743638, -18.174256], "type": "Point"}, "properties": {"id": "50", "name": "Puro Chile"}, "type": "Feature"}, {"geometry": {"coordinates": [-70.128882, -20.295653], "type": "Point"}, "properties": {"id": "51", "name": "Bajo Molle"}, "type": "Feature"}, {"geometry": {"coordinates": [-70.134437, -20.300595], "type": "Point"}, "properties": {"id": "52", "name": "Tres Islas"}, "type": "Feature"}, {"geometry": {"coordinates": [-70.135717, -20.309073], "type": "Point"}, "properties": {"id": "53", "name": "Cerro Colorado"}, "type": "Feature"}, {"geometry": {"coordinates": [-70.143889, -20.331611], "type": "Point"}, "properties": {"id": "54", "name": "Playa Blanca"}, "type": "Feature"}, {"geometry": {"coordinates": [-70.146632, -20.334075], "type": "Point"}, "properties": {"id": "55", "name": "Alto Playa Blanca"}, "type": "Feature"}, {"geometry": {"coordinates": [-70.169243, -20.355034], "type": "Point"}, "properties": {"id": "56", "name": "Punta Gruesa"}, "type": "Feature"}, {"geometry": {"coordinates": [-70.147018, -18.816904], "type": "Point"}, "properties": {"id": "57", "name": "Chaca"}, "type": "Feature"}, {"geometry": {"coordinates": [-69.067565, -18.78521], "type": "Point"}, "properties": {"id": "58", "name": "Chilcaya Alto"}, "type": "Feature"}, {"geometry": {"coordinates": [-69.060002, -18.798497], "type": "Point"}, "properties": {"id": "59", "name": "Borax"}, "type": "Feature"}, {"geometry": {"coordinates": [-68.962206, -18.808281], "type": "Point"}, "properties": {"id": "60", "name": "Chill\u00dfn Viejo"}, "type": "Feature"}, {"geometry": {"coordinates": [-69.137701, -18.853208], "type": "Point"}, "properties": {"id": "61", "name": "Chulluncane"}, "type": "Feature"}, {"geometry": {"coordinates": [-69.146811, -18.857129], "type": "Point"}, "properties": {"id": "62", "name": "Chulluncane"}, "type": "Feature"}, {"geometry": {"coordinates": [-69.1041, -18.918936], "type": "Point"}, "properties": {"id": "63", "name": "Surire Conaf"}, "type": "Feature"}, {"geometry": {"coordinates": [-69.378937, -19.528347], "type": "Point"}, "properties": {"id": "64", "name": "Soga"}, "type": "Feature"}, {"geometry": {"coordinates": [-69.338156, -19.569876], "type": "Point"}, "properties": {"id": "65", "name": "Quebrada de Aroma"}, "type": "Feature"}, {"geometry": {"coordinates": [-70.125207, -19.112211], "type": "Point"}, "properties": {"id": "66", "name": "Cuya"}, "type": "Feature"}, {"geometry": {"coordinates": [-69.554965, -18.354652], "type": "Point"}, "properties": {"id": "67", "name": "Murmuntani Bajo"}, "type": "Feature"}, {"geometry": {"coordinates": [-69.552581, -18.350222], "type": "Point"}, "properties": {"id": "68", "name": "Murmuntani Alto"}, "type": "Feature"}, {"geometry": {"coordinates": [-69.556079, -18.3565], "type": "Point"}, "properties": {"id": "69", "name": "Ventullo"}, "type": "Feature"}, {"geometry": {"coordinates": [-69.556843, -18.360383], "type": "Point"}, "properties": {"id": "70", "name": "Ancabullo"}, "type": "Feature"}, {"geometry": {"coordinates": [-69.561297, -18.36324], "type": "Point"}, "properties": {"id": "71", "name": "Agua Santa"}, "type": "Feature"}, {"geometry": {"coordinates": [-69.573731, -18.363145], "type": "Point"}, "properties": {"id": "72", "name": "Epispacha"}, "type": "Feature"}, {"geometry": {"coordinates": [-69.574105, -18.372474], "type": "Point"}, "properties": {"id": "73", "name": "Chusmiza"}, "type": "Feature"}, {"geometry": {"coordinates": [-69.535285, -18.393557], "type": "Point"}, "properties": {"id": "74", "name": "Chapiqui\u00b1a"}, "type": "Feature"}, {"geometry": {"coordinates": [-69.54404, -18.386121], "type": "Point"}, "properties": {"id": "75", "name": "Central Hidroel\u00dactrica"}, "type": "Feature"}, {"geometry": {"coordinates": [-69.548206, -18.399483], "type": "Point"}, "properties": {"id": "76", "name": "Caillama"}, "type": "Feature"}, {"geometry": {"coordinates": [-69.52805, -18.4297], "type": "Point"}, "properties": {"id": "77", "name": "Pachama"}, "type": "Feature"}, {"geometry": {"coordinates": [-69.519841, -18.428916], "type": "Point"}, "properties": {"id": "78", "name": "Caisacola"}, "type": "Feature"}, {"geometry": {"coordinates": [-69.51986, -18.467643], "type": "Point"}, "properties": {"id": "79", "name": "Belen"}, "type": "Feature"}, {"geometry": {"coordinates": [-69.51154, -18.456397], "type": "Point"}, "properties": {"id": "80", "name": "Opairumani"}, "type": "Feature"}, {"geometry": {"coordinates": [-69.502849, -18.459584], "type": "Point"}, "properties": {"id": "81", "name": "Mendoza"}, "type": "Feature"}, {"geometry": {"coordinates": [-69.513228, -18.46687], "type": "Point"}, "properties": {"id": "82", "name": "Quipaquipane"}, "type": "Feature"}, {"geometry": {"coordinates": [-69.503695, -18.465512], "type": "Point"}, "properties": {"id": "83", "name": "Aquechoco"}, "type": "Feature"}, {"geometry": {"coordinates": [-69.565434, -18.470566], "type": "Point"}, "properties": {"id": "84", "name": "Achacagua"}, "type": "Feature"}, {"geometry": {"coordinates": [-69.547994, -18.495491], "type": "Point"}, "properties": {"id": "85", "name": "Lupica Medio"}, "type": "Feature"}, {"geometry": {"coordinates": [-69.539025, -18.496798], "type": "Point"}, "properties": {"id": "86", "name": "Lupica"}, "type": "Feature"}, {"geometry": {"coordinates": [-69.536543, -18.493906], "type": "Point"}, "properties": {"id": "87", "name": "Lupica Alto"}, "type": "Feature"}, {"geometry": {"coordinates": [-69.4786, -18.584467], "type": "Point"}, "properties": {"id": "88", "name": "Saxamar Bajo"}, "type": "Feature"}, {"geometry": {"coordinates": [-69.493877, -18.523722], "type": "Point"}, "properties": {"id": "89", "name": "Chaijate"}, "type": "Feature"}, {"geometry": {"coordinates": [-69.506833, -18.518188], "type": "Point"}, "properties": {"id": "90", "name": "Chucurjalla"}, "type": "Feature"}, {"geometry": {"coordinates": [-69.493771, -18.530418], "type": "Point"}, "properties": {"id": "91", "name": "Vilque"}, "type": "Feature"}, {"geometry": {"coordinates": [-69.489213, -18.539113], "type": "Point"}, "properties": {"id": "92", "name": "Vilque"}, "type": "Feature"}, {"geometry": {"coordinates": [-69.958357, -19.458766], "type": "Point"}, "properties": {"id": "93", "name": "Tana"}, "type": "Feature"}, {"geometry": {"coordinates": [-69.948744, -19.551403], "type": "Point"}, "properties": {"id": "94", "name": "Tiliviche"}, "type": "Feature"}, {"geometry": {"coordinates": [-70.023517, -19.527396], "type": "Point"}, "properties": {"id": "95", "name": "Quiu\u00b1a Alto"}, "type": "Feature"}, {"geometry": {"coordinates": [-70.038008, -19.515112], "type": "Point"}, "properties": {"id": "96", "name": "Quiu\u00b1a Bajo"}, "type": "Feature"}, {"geometry": {"coordinates": [-69.818004, -19.430021], "type": "Point"}, "properties": {"id": "97", "name": "Corza"}, "type": "Feature"}, {"geometry": {"coordinates": [-69.979881, -19.173291], "type": "Point"}, "properties": {"id": "98", "name": "Bajo Chiza"}, "type": "Feature"}, {"geometry": {"coordinates": [-69.066673, -20.820304], "type": "Point"}, "properties": {"id": "99", "name": "Cahuisa"}, "type": "Feature"}, {"geometry": {"coordinates": [-69.537688, -20.851226], "type": "Point"}, "properties": {"id": "100", "name": "Cerro Gordo"}, "type": "Feature"}, {"geometry": {"coordinates": [-69.059673, -20.928501], "type": "Point"}, "properties": {"id": "101", "name": "Guatacondo"}, "type": "Feature"}, {"geometry": {"coordinates": [-69.003113, -20.940239], "type": "Point"}, "properties": {"id": "102", "name": "Cautenisca"}, "type": "Feature"}, {"geometry": {"coordinates": [-69.160633, -21.076668], "type": "Point"}, "properties": {"id": "103", "name": "Man\u00dd"}, "type": "Feature"}, {"geometry": {"coordinates": [-69.56674, -21.599036], "type": "Point"}, "properties": {"id": "104", "name": "Avanzada De Quillagua"}, "type": "Feature"}, {"geometry": {"coordinates": [-69.59972, -20.6345], "type": "Point"}, "properties": {"id": "105", "name": "Pique Aurrer\u00df"}, "type": "Feature"}, {"geometry": {"coordinates": [-69.567747, -20.640208], "type": "Point"}, "properties": {"id": "106", "name": "Pique Chileno"}, "type": "Feature"}, {"geometry": {"coordinates": [-69.492718, -18.898357], "type": "Point"}, "properties": {"id": "107", "name": "Saguara"}, "type": "Feature"}, {"geometry": {"coordinates": [-69.442902, -18.842884], "type": "Point"}, "properties": {"id": "108", "name": "Sucuna"}, "type": "Feature"}, {"geometry": {"coordinates": [-69.462371, -18.820204], "type": "Point"}, "properties": {"id": "109", "name": "Espillisa"}, "type": "Feature"}, {"geometry": {"coordinates": [-69.385997, -18.822989], "type": "Point"}, "properties": {"id": "110", "name": "Chunchu\u00b1ure"}, "type": "Feature"}, {"geometry": {"coordinates": [-69.42418, -18.94539], "type": "Point"}, "properties": {"id": "111", "name": "Condumaya"}, "type": "Feature"}, {"geometry": {"coordinates": [-69.452474, -18.960504], "type": "Point"}, "properties": {"id": "112", "name": "Cerro Blanco"}, "type": "Feature"}, {"geometry": {"coordinates": [-69.509463, -18.946441], "type": "Point"}, "properties": {"id": "113", "name": "Illapata"}, "type": "Feature"}, {"geometry": {"coordinates": [-69.531637, -18.937303], "type": "Point"}, "properties": {"id": "114", "name": "Esqui\u00b1a"}, "type": "Feature"}, {"geometry": {"coordinates": [-69.532238, -18.942206], "type": "Point"}, "properties": {"id": "115", "name": "\u00d0eque\u00b1eque"}, "type": "Feature"}, {"geometry": {"coordinates": [-69.547922, -18.943892], "type": "Point"}, "properties": {"id": "116", "name": "Seipugro"}, "type": "Feature"}, {"geometry": {"coordinates": [-68.950785, -19.392462], "type": "Point"}, "properties": {"id": "117", "name": "Puchuldiza"}, "type": "Feature"}, {"geometry": {"coordinates": [-68.98644, -19.398088], "type": "Point"}, "properties": {"id": "118", "name": "Lupe"}, "type": "Feature"}, {"geometry": {"coordinates": [-69.052735, -19.486001], "type": "Point"}, "properties": {"id": "119", "name": "Pingalliri"}, "type": "Feature"}, {"geometry": {"coordinates": [-69.010765, -19.487365], "type": "Point"}, "properties": {"id": "120", "name": "Hullumaya"}, "type": "Feature"}, {"geometry": {"coordinates": [-68.980667, -19.52685], "type": "Point"}, "properties": {"id": "121", "name": "Tapa Bajo"}, "type": "Feature"}, {"geometry": {"coordinates": [-68.904969, -19.581377], "type": "Point"}, "properties": {"id": "122", "name": "Chichura"}, "type": "Feature"}, {"geometry": {"coordinates": [-69.17034, -19.77939], "type": "Point"}, "properties": {"id": "123", "name": "Sibaya"}, "type": "Feature"}, {"geometry": {"coordinates": [-69.180001, -19.784507], "type": "Point"}, "properties": {"id": "124", "name": "Limaxi\u00b1a"}, "type": "Feature"}, {"geometry": {"coordinates": [-69.223108, -19.793598], "type": "Point"}, "properties": {"id": "125", "name": "Guavi\u00b1a"}, "type": "Feature"}, {"geometry": {"coordinates": [-69.273626, -19.812322], "type": "Point"}, "properties": {"id": "126", "name": "Mocha"}, "type": "Feature"}, {"geometry": {"coordinates": [-69.068222, -18.311502], "type": "Point"}, "properties": {"id": "127", "name": "Supacalani"}, "type": "Feature"}, {"geometry": {"coordinates": [-69.093846, -18.310474], "type": "Point"}, "properties": {"id": "128", "name": "Jalsuri"}, "type": "Feature"}, {"geometry": {"coordinates": [-69.134666, -18.285808], "type": "Point"}, "properties": {"id": "129", "name": "Complejo Aduanero Chungar\u00df"}, "type": "Feature"}, {"geometry": {"coordinates": [-69.131651, -18.305893], "type": "Point"}, "properties": {"id": "130", "name": "Chungar\u00df Viejo"}, "type": "Feature"}, {"geometry": {"coordinates": [-69.157731, -18.282916], "type": "Point"}, "properties": {"id": "131", "name": "Ajata"}, "type": "Feature"}, {"geometry": {"coordinates": [-69.175562, -18.256722], "type": "Point"}, "properties": {"id": "132", "name": "Refugio Conaf Chungar\u00df"}, "type": "Feature"}, {"geometry": {"coordinates": [-69.191674, -18.170038], "type": "Point"}, "properties": {"id": "133", "name": "Balbune"}, "type": "Feature"}, {"geometry": {"coordinates": [-69.234431, -18.179642], "type": "Point"}, "properties": {"id": "134", "name": "Cotacotani"}, "type": "Feature"}, {"geometry": {"coordinates": [-69.257315, -18.195425], "type": "Point"}, "properties": {"id": "135", "name": "Chingani"}, "type": "Feature"}, {"geometry": {"coordinates": [-69.297847, -18.171153], "type": "Point"}, "properties": {"id": "136", "name": "Copapujo"}, "type": "Feature"}, {"geometry": {"coordinates": [-69.325318, -18.263436], "type": "Point"}, "properties": {"id": "137", "name": "Japo"}, "type": "Feature"}, {"geometry": {"coordinates": [-69.341294, -18.273452], "type": "Point"}, "properties": {"id": "138", "name": "Lauca Muntune"}, "type": "Feature"}, {"geometry": {"coordinates": [-69.344407, -18.296028], "type": "Point"}, "properties": {"id": "139", "name": "Pocollo"}, "type": "Feature"}, {"geometry": {"coordinates": [-68.83267, -19.827446], "type": "Point"}, "properties": {"id": "140", "name": "Planta Lagunilla"}, "type": "Feature"}, {"geometry": {"coordinates": [-68.831265, -19.828339], "type": "Point"}, "properties": {"id": "141", "name": "Lirima"}, "type": "Feature"}, {"geometry": {"coordinates": [-68.598499, -19.856568], "type": "Point"}, "properties": {"id": "142", "name": "Cancosa"}, "type": "Feature"}, {"geometry": {"coordinates": [-68.582965, -19.872137], "type": "Point"}, "properties": {"id": "143", "name": "Cancosa Viejo"}, "type": "Feature"}, {"geometry": {"coordinates": [-69.683723, -17.780534], "type": "Point"}, "properties": {"id": "144", "name": "Villa Industrial"}, "type": "Feature"}, {"geometry": {"coordinates": [-70.213086, -19.597814], "type": "Point"}, "properties": {"id": "145", "name": "Pisagua"}, "type": "Feature"}, {"geometry": {"coordinates": [-69.958965, -19.604834], "type": "Point"}, "properties": {"id": "146", "name": "Cappta"}, "type": "Feature"}, {"geometry": {"coordinates": [-69.947118, -19.677358], "type": "Point"}, "properties": {"id": "147", "name": "Dolores"}, "type": "Feature"}, {"geometry": {"coordinates": [-69.867174, -19.684188], "type": "Point"}, "properties": {"id": "148", "name": "Bajo Soga"}, "type": "Feature"}, {"geometry": {"coordinates": [-69.854953, -19.866984], "type": "Point"}, "properties": {"id": "149", "name": "Negreiros"}, "type": "Feature"}, {"geometry": {"coordinates": [-69.791146, -19.864728], "type": "Point"}, "properties": {"id": "150", "name": "Vista Hermosa"}, "type": "Feature"}, {"geometry": {"coordinates": [-69.809293, -19.840561], "type": "Point"}, "properties": {"id": "151", "name": "Colonos Rurales"}, "type": "Feature"}, {"geometry": {"coordinates": [-69.262747, -19.146158], "type": "Point"}, "properties": {"id": "152", "name": "Campamento De Lata"}, "type": "Feature"}, {"geometry": {"coordinates": [-69.134577, -19.105113], "type": "Point"}, "properties": {"id": "153", "name": "Pumiri"}, "type": "Feature"}, {"geometry": {"coordinates": [-69.221717, -19.126728], "type": "Point"}, "properties": {"id": "154", "name": "Maimaja"}, "type": "Feature"}, {"geometry": {"coordinates": [-69.209723, -19.22062], "type": "Point"}, "properties": {"id": "155", "name": "Berenguela"}, "type": "Feature"}, {"geometry": {"coordinates": [-69.779456, -20.400426], "type": "Point"}, "properties": {"id": "156", "name": "Planta Diana"}, "type": "Feature"}, {"geometry": {"coordinates": [-69.855051, -20.40641], "type": "Point"}, "properties": {"id": "157", "name": "Minera Soledad"}, "type": "Feature"}, {"geometry": {"coordinates": [-69.716128, -20.439816], "type": "Point"}, "properties": {"id": "158", "name": "Canteras"}, "type": "Feature"}, {"geometry": {"coordinates": [-69.691463, -20.510613], "type": "Point"}, "properties": {"id": "159", "name": "Junoy"}, "type": "Feature"}, {"geometry": {"coordinates": [-69.696247, -20.542555], "type": "Point"}, "properties": {"id": "160", "name": "Pillaya"}, "type": "Feature"}, {"geometry": {"coordinates": [-69.638502, -20.621792], "type": "Point"}, "properties": {"id": "161", "name": "Ex Estaci\u00ben Pintados"}, "type": "Feature"}, {"geometry": {"coordinates": [-68.831009, -20.037503], "type": "Point"}, "properties": {"id": "162", "name": "Collacagua"}, "type": "Feature"}, {"geometry": {"coordinates": [-68.879415, -20.270024], "type": "Point"}, "properties": {"id": "163", "name": "Laguna Del Huasco"}, "type": "Feature"}, {"geometry": {"coordinates": [-68.888835, -20.308143], "type": "Point"}, "properties": {"id": "164", "name": "Huasco Lipe"}, "type": "Feature"}, {"geometry": {"coordinates": [-69.595093, -18.334471], "type": "Point"}, "properties": {"id": "165", "name": "Zapahuira"}, "type": "Feature"}, {"geometry": {"coordinates": [-69.618423, -18.322226], "type": "Point"}, "properties": {"id": "166", "name": "Quebrada Zapahuira"}, "type": "Feature"}, {"geometry": {"coordinates": [-69.607897, -18.311409], "type": "Point"}, "properties": {"id": "167", "name": "Mancaruma"}, "type": "Feature"}, {"geometry": {"coordinates": [-69.587969, -18.337321], "type": "Point"}, "properties": {"id": "168", "name": "Paradero Zapahuira"}, "type": "Feature"}, {"geometry": {"coordinates": [-69.641116, -18.374981], "type": "Point"}, "properties": {"id": "169", "name": "R\u00ddo Seco"}, "type": "Feature"}, {"geometry": {"coordinates": [-69.624027, -18.406676], "type": "Point"}, "properties": {"id": "170", "name": "Copaquilla"}, "type": "Feature"}, {"geometry": {"coordinates": [-69.640576, -18.38158], "type": "Point"}, "properties": {"id": "171", "name": "Maillku"}, "type": "Feature"}, {"geometry": {"coordinates": [-69.578807, -18.230594], "type": "Point"}, "properties": {"id": "172", "name": "Aroma"}, "type": "Feature"}, {"geometry": {"coordinates": [-69.601816, -18.263811], "type": "Point"}, "properties": {"id": "173", "name": "Socoroma"}, "type": "Feature"}, {"geometry": {"coordinates": [-69.61605, -18.254173], "type": "Point"}, "properties": {"id": "174", "name": "Cusiani"}, "type": "Feature"}, {"geometry": {"coordinates": [-69.724445, -17.775144], "type": "Point"}, "properties": {"id": "175", "name": "Tacora"}, "type": "Feature"}, {"geometry": {"coordinates": [-69.687621, -18.859396], "type": "Point"}, "properties": {"id": "176", "name": "Chucuyo"}, "type": "Feature"}, {"geometry": {"coordinates": [-69.955561, -19.028764], "type": "Point"}, "properties": {"id": "177", "name": "Comanoxa"}, "type": "Feature"}, {"geometry": {"coordinates": [-69.849504, -19.004275], "type": "Point"}, "properties": {"id": "178", "name": "Taltape"}, "type": "Feature"}, {"geometry": {"coordinates": [-69.647329, -18.95021], "type": "Point"}, "properties": {"id": "179", "name": "Pachica - Casero"}, "type": "Feature"}, {"geometry": {"coordinates": [-69.087844, -18.703281], "type": "Point"}, "properties": {"id": "180", "name": "Que\u00b1auco"}, "type": "Feature"}, {"geometry": {"coordinates": [-69.106674, -18.718097], "type": "Point"}, "properties": {"id": "181", "name": "Pa\u00b1opahuano"}, "type": "Feature"}, {"geometry": {"coordinates": [-69.073289, -18.702092], "type": "Point"}, "properties": {"id": "182", "name": "Paquisa"}, "type": "Feature"}, {"geometry": {"coordinates": [-69.082823, -18.698501], "type": "Point"}, "properties": {"id": "183", "name": "Negrovinto"}, "type": "Feature"}, {"geometry": {"coordinates": [-69.082319, -18.694436], "type": "Point"}, "properties": {"id": "184", "name": "Ullunuguano"}, "type": "Feature"}, {"geometry": {"coordinates": [-69.039678, -18.592118], "type": "Point"}, "properties": {"id": "185", "name": "Guata"}, "type": "Feature"}, {"geometry": {"coordinates": [-69.019749, -18.537171], "type": "Point"}, "properties": {"id": "186", "name": "Japu"}, "type": "Feature"}, {"geometry": {"coordinates": [-69.021003, -18.541715], "type": "Point"}, "properties": {"id": "187", "name": "Japu"}, "type": "Feature"}, {"geometry": {"coordinates": [-69.025271, -18.584998], "type": "Point"}, "properties": {"id": "188", "name": "Olloco"}, "type": "Feature"}, {"geometry": {"coordinates": [-69.062617, -18.534053], "type": "Point"}, "properties": {"id": "189", "name": "Chuilpa"}, "type": "Feature"}, {"geometry": {"coordinates": [-69.059361, -18.541228], "type": "Point"}, "properties": {"id": "190", "name": "Visalla"}, "type": "Feature"}, {"geometry": {"coordinates": [-69.025263, -18.529518], "type": "Point"}, "properties": {"id": "191", "name": "Butijani"}, "type": "Feature"}, {"geometry": {"coordinates": [-69.181655, -18.629832], "type": "Point"}, "properties": {"id": "192", "name": "Viscachane"}, "type": "Feature"}, {"geometry": {"coordinates": [-69.15815, -18.609929], "type": "Point"}, "properties": {"id": "193", "name": "Pisarata"}, "type": "Feature"}, {"geometry": {"coordinates": [-69.159416, -18.580475], "type": "Point"}, "properties": {"id": "194", "name": "Ancollocone"}, "type": "Feature"}, {"geometry": {"coordinates": [-69.126315, -18.58074], "type": "Point"}, "properties": {"id": "195", "name": "Utalacata"}, "type": "Feature"}, {"geometry": {"coordinates": [-69.114514, -18.558747], "type": "Point"}, "properties": {"id": "196", "name": "Ungallire"}, "type": "Feature"}, {"geometry": {"coordinates": [-69.142664, -18.640033], "type": "Point"}, "properties": {"id": "197", "name": "Catanave"}, "type": "Feature"}, {"geometry": {"coordinates": [-69.166397, -18.539339], "type": "Point"}, "properties": {"id": "198", "name": "Guallatire"}, "type": "Feature"}, {"geometry": {"coordinates": [-69.163662, -18.562776], "type": "Point"}, "properties": {"id": "199", "name": "Vislubio"}, "type": "Feature"}, {"geometry": {"coordinates": [-69.180205, -18.557261], "type": "Point"}, "properties": {"id": "200", "name": "Vilacollo"}, "type": "Feature"}, {"geometry": {"coordinates": [-69.204025, -18.557954], "type": "Point"}, "properties": {"id": "201", "name": "Vilaqui"}, "type": "Feature"}, {"geometry": {"coordinates": [-69.226977, -18.524027], "type": "Point"}, "properties": {"id": "202", "name": "Lauca Ancalle"}, "type": "Feature"}, {"geometry": {"coordinates": [-69.221425, -18.537115], "type": "Point"}, "properties": {"id": "203", "name": "Lauca"}, "type": "Feature"}, {"geometry": {"coordinates": [-69.175649, -18.515656], "type": "Point"}, "properties": {"id": "204", "name": "Surasurani"}, "type": "Feature"}, {"geometry": {"coordinates": [-69.15982, -18.476213], "type": "Point"}, "properties": {"id": "205", "name": "Chuba"}, "type": "Feature"}, {"geometry": {"coordinates": [-69.17886, -18.469739], "type": "Point"}, "properties": {"id": "206", "name": "Churaqui"}, "type": "Feature"}, {"geometry": {"coordinates": [-69.200641, -18.451065], "type": "Point"}, "properties": {"id": "207", "name": "Ancuta"}, "type": "Feature"}, {"geometry": {"coordinates": [-69.22092, -18.437412], "type": "Point"}, "properties": {"id": "208", "name": "Acusuma"}, "type": "Feature"}, {"geometry": {"coordinates": [-69.229918, -18.421379], "type": "Point"}, "properties": {"id": "209", "name": "Tambocollo"}, "type": "Feature"}, {"geometry": {"coordinates": [-69.227225, -18.472525], "type": "Point"}, "properties": {"id": "210", "name": "Lliza"}, "type": "Feature"}, {"geometry": {"coordinates": [-69.243736, -18.50994], "type": "Point"}, "properties": {"id": "211", "name": "Lauca Cruzani"}, "type": "Feature"}, {"geometry": {"coordinates": [-69.398852, -18.393192], "type": "Point"}, "properties": {"id": "212", "name": "Quiliviri"}, "type": "Feature"}, {"geometry": {"coordinates": [-69.362494, -18.375091], "type": "Point"}, "properties": {"id": "213", "name": "Misitune"}, "type": "Feature"}, {"geometry": {"coordinates": [-69.286074, -18.358003], "type": "Point"}, "properties": {"id": "214", "name": "Choquelimpie"}, "type": "Feature"}, {"geometry": {"coordinates": [-69.249228, -18.335576], "type": "Point"}, "properties": {"id": "215", "name": "Fundici\u00ben"}, "type": "Feature"}, {"geometry": {"coordinates": [-69.251203, -18.316682], "type": "Point"}, "properties": {"id": "216", "name": "Las Rejas"}, "type": "Feature"}, {"geometry": {"coordinates": [-69.184364, -18.327758], "type": "Point"}, "properties": {"id": "217", "name": "Chiriguayllas"}, "type": "Feature"}, {"geometry": {"coordinates": [-69.179136, -18.357895], "type": "Point"}, "properties": {"id": "218", "name": "Nigramalla"}, "type": "Feature"}, {"geometry": {"coordinates": [-69.884968, -19.279751], "type": "Point"}, "properties": {"id": "219", "name": "Bodega"}, "type": "Feature"}, {"geometry": {"coordinates": [-69.852822, -19.252473], "type": "Point"}, "properties": {"id": "220", "name": "Obra P\u00dda"}, "type": "Feature"}, {"geometry": {"coordinates": [-69.87707, -19.248693], "type": "Point"}, "properties": {"id": "221", "name": "Alto Liga"}, "type": "Feature"}, {"geometry": {"coordinates": [-69.886238, -19.242376], "type": "Point"}, "properties": {"id": "222", "name": "Liga"}, "type": "Feature"}, {"geometry": {"coordinates": [-69.798211, -19.264888], "type": "Point"}, "properties": {"id": "223", "name": "Suca"}, "type": "Feature"}, {"geometry": {"coordinates": [-69.795743, -19.274924], "type": "Point"}, "properties": {"id": "224", "name": "Pampa De Quipinta"}, "type": "Feature"}, {"geometry": {"coordinates": [-69.779825, -19.279573], "type": "Point"}, "properties": {"id": "225", "name": "Pampa De Betel"}, "type": "Feature"}, {"geometry": {"coordinates": [-69.77083, -19.28459], "type": "Point"}, "properties": {"id": "226", "name": "San Antonio"}, "type": "Feature"}, {"geometry": {"coordinates": [-69.770802, -19.278616], "type": "Point"}, "properties": {"id": "227", "name": "San Esteban"}, "type": "Feature"}, {"geometry": {"coordinates": [-69.778666, -19.270881], "type": "Point"}, "properties": {"id": "228", "name": "Suca Bajo"}, "type": "Feature"}, {"geometry": {"coordinates": [-69.784503, -19.263553], "type": "Point"}, "properties": {"id": "229", "name": "San Javier"}, "type": "Feature"}, {"geometry": {"coordinates": [-69.6847, -19.181199], "type": "Point"}, "properties": {"id": "230", "name": "Mi\u00b1imi\u00b1e"}, "type": "Feature"}, {"geometry": {"coordinates": [-69.637003, -19.144895], "type": "Point"}, "properties": {"id": "231", "name": "Quipinta"}, "type": "Feature"}, {"geometry": {"coordinates": [-69.656281, -19.153834], "type": "Point"}, "properties": {"id": "232", "name": "Pampa Trigo"}, "type": "Feature"}, {"geometry": {"coordinates": [-69.635038, -19.068083], "type": "Point"}, "properties": {"id": "233", "name": "Cutijmaya"}, "type": "Feature"}, {"geometry": {"coordinates": [-69.598068, -19.091625], "type": "Point"}, "properties": {"id": "234", "name": "Mi\u00b1ita"}, "type": "Feature"}, {"geometry": {"coordinates": [-69.608124, -19.108711], "type": "Point"}, "properties": {"id": "235", "name": "Pampa del Fraile"}, "type": "Feature"}, {"geometry": {"coordinates": [-69.545186, -19.115594], "type": "Point"}, "properties": {"id": "236", "name": "Champaja"}, "type": "Feature"}, {"geometry": {"coordinates": [-69.532908, -19.172263], "type": "Point"}, "properties": {"id": "237", "name": "Cuanalla"}, "type": "Feature"}, {"geometry": {"coordinates": [-69.709013, -18.499595], "type": "Point"}, "properties": {"id": "238", "name": "Cabuza"}, "type": "Feature"}, {"geometry": {"coordinates": [-69.765664, -18.553785], "type": "Point"}, "properties": {"id": "239", "name": "Santuario Livilcar"}, "type": "Feature"}, {"geometry": {"coordinates": [-69.827372, -18.588129], "type": "Point"}, "properties": {"id": "240", "name": "Ausipar Paradero"}, "type": "Feature"}, {"geometry": {"coordinates": [-69.804301, -18.587751], "type": "Point"}, "properties": {"id": "241", "name": "Ausipar"}, "type": "Feature"}, {"geometry": {"coordinates": [-69.7804, -18.570396], "type": "Point"}, "properties": {"id": "242", "name": "Humagata"}, "type": "Feature"}, {"geometry": {"coordinates": [-69.941646, -18.579636], "type": "Point"}, "properties": {"id": "243", "name": "Albarrac\u00ddn"}, "type": "Feature"}, {"geometry": {"coordinates": [-69.977681, -18.576527], "type": "Point"}, "properties": {"id": "244", "name": "Pampa Algodonal"}, "type": "Feature"}, {"geometry": {"coordinates": [-69.988744, -18.583861], "type": "Point"}, "properties": {"id": "245", "name": "Surire"}, "type": "Feature"}, {"geometry": {"coordinates": [-70.000014, -18.584841], "type": "Point"}, "properties": {"id": "246", "name": "Pan de Az\u00b7car"}, "type": "Feature"}, {"geometry": {"coordinates": [-70.026087, -18.576847], "type": "Point"}, "properties": {"id": "247", "name": "Casa Grande"}, "type": "Feature"}, {"geometry": {"coordinates": [-70.024425, -18.582438], "type": "Point"}, "properties": {"id": "248", "name": "Asentamiento Dieciocho De Septiembre"}, "type": "Feature"}, {"geometry": {"coordinates": [-70.270936, -18.497197], "type": "Point"}, "properties": {"id": "249", "name": "Pago De G\u00bemez"}, "type": "Feature"}, {"geometry": {"coordinates": [-70.216229, -18.512858], "type": "Point"}, "properties": {"id": "250", "name": "Alto Ram\u00ddrez"}, "type": "Feature"}, {"geometry": {"coordinates": [-70.222965, -18.503263], "type": "Point"}, "properties": {"id": "251", "name": "Cerro Blanco"}, "type": "Feature"}, {"geometry": {"coordinates": [-70.198588, -18.516892], "type": "Point"}, "properties": {"id": "252", "name": "Las Maitas"}, "type": "Feature"}, {"geometry": {"coordinates": [-70.179737, -18.518182], "type": "Point"}, "properties": {"id": "253", "name": "Santa Irene"}, "type": "Feature"}, {"geometry": {"coordinates": [-70.173632, -18.523325], "type": "Point"}, "properties": {"id": "254", "name": "San Miguel de Azapa"}, "type": "Feature"}, {"geometry": {"coordinates": [-70.16962, -18.526781], "type": "Point"}, "properties": {"id": "255", "name": "Quebrada De Acha"}, "type": "Feature"}, {"geometry": {"coordinates": [-70.161806, -18.525825], "type": "Point"}, "properties": {"id": "256", "name": "Quebrada De Acha"}, "type": "Feature"}, {"geometry": {"coordinates": [-70.16639, -18.529144], "type": "Point"}, "properties": {"id": "257", "name": "La Ribera"}, "type": "Feature"}, {"geometry": {"coordinates": [-70.142622, -18.543181], "type": "Point"}, "properties": {"id": "258", "name": "Cerro Moreno"}, "type": "Feature"}, {"geometry": {"coordinates": [-70.282486, -18.498601], "type": "Point"}, "properties": {"id": "259", "name": "Chuval"}, "type": "Feature"}, {"geometry": {"coordinates": [-69.393409, -20.244004], "type": "Point"}, "properties": {"id": "260", "name": "Cantera Carlos Cordano"}, "type": "Feature"}, {"geometry": {"coordinates": [-69.150656, -20.178112], "type": "Point"}, "properties": {"id": "261", "name": "Ventana"}, "type": "Feature"}, {"geometry": {"coordinates": [-69.18555, -20.133101], "type": "Point"}, "properties": {"id": "262", "name": "Macaya"}, "type": "Feature"}, {"geometry": {"coordinates": [-69.155015, -20.123026], "type": "Point"}, "properties": {"id": "263", "name": "Chilcapa"}, "type": "Feature"}, {"geometry": {"coordinates": [-69.060868, -20.171858], "type": "Point"}, "properties": {"id": "264", "name": "Planada"}, "type": "Feature"}, {"geometry": {"coordinates": [-69.064905, -20.137188], "type": "Point"}, "properties": {"id": "265", "name": "Tacalla"}, "type": "Feature"}, {"geometry": {"coordinates": [-69.032493, -20.095117], "type": "Point"}, "properties": {"id": "266", "name": "San F\u00dalix"}, "type": "Feature"}, {"geometry": {"coordinates": [-69.128952, -20.135748], "type": "Point"}, "properties": {"id": "267", "name": "Crucero"}, "type": "Feature"}, {"geometry": {"coordinates": [-69.115054, -20.062162], "type": "Point"}, "properties": {"id": "268", "name": "La Llinca"}, "type": "Feature"}, {"geometry": {"coordinates": [-69.21566, -20.074786], "type": "Point"}, "properties": {"id": "269", "name": "Mami\u00b1a"}, "type": "Feature"}, {"geometry": {"coordinates": [-69.205659, -20.01501], "type": "Point"}, "properties": {"id": "270", "name": "Parca"}, "type": "Feature"}, {"geometry": {"coordinates": [-69.251705, -20.040719], "type": "Point"}, "properties": {"id": "271", "name": "Cerro Colorado"}, "type": "Feature"}, {"geometry": {"coordinates": [-69.36229, -20.066294], "type": "Point"}, "properties": {"id": "272", "name": "Quipisca"}, "type": "Feature"}, {"geometry": {"coordinates": [-69.118391, -20.008978], "type": "Point"}, "properties": {"id": "273", "name": "Capilla"}, "type": "Feature"}, {"geometry": {"coordinates": [-69.120907, -19.985446], "type": "Point"}, "properties": {"id": "274", "name": "Bajada Uno"}, "type": "Feature"}, {"geometry": {"coordinates": [-69.003453, -20.009487], "type": "Point"}, "properties": {"id": "275", "name": "Apo"}, "type": "Feature"}, {"geometry": {"coordinates": [-69.01186, -19.951107], "type": "Point"}, "properties": {"id": "276", "name": "Cauquima"}, "type": "Feature"}, {"geometry": {"coordinates": [-69.000228, -19.931501], "type": "Point"}, "properties": {"id": "277", "name": "Marcalla"}, "type": "Feature"}, {"geometry": {"coordinates": [-69.210627, -20.095833], "type": "Point"}, "properties": {"id": "278", "name": "Quebrada Imagua"}, "type": "Feature"}, {"geometry": {"coordinates": [-68.709787, -20.633485], "type": "Point"}, "properties": {"id": "279", "name": "Salar De Coposa"}, "type": "Feature"}, {"geometry": {"coordinates": [-68.632166, -20.870505], "type": "Point"}, "properties": {"id": "280", "name": "Collaguasi"}, "type": "Feature"}, {"geometry": {"coordinates": [-68.71155, -21.064483], "type": "Point"}, "properties": {"id": "281", "name": "Piedras Canteadas"}, "type": "Feature"}, {"geometry": {"coordinates": [-68.949543, -20.930919], "type": "Point"}, "properties": {"id": "282", "name": "Copaquire"}, "type": "Feature"}, {"geometry": {"coordinates": [-69.217746, -19.031359], "type": "Point"}, "properties": {"id": "283", "name": "Mulluri"}, "type": "Feature"}, {"geometry": {"coordinates": [-69.19923, -19.00161], "type": "Point"}, "properties": {"id": "284", "name": "Tanka"}, "type": "Feature"}, {"geometry": {"coordinates": [-69.200932, -18.953544], "type": "Point"}, "properties": {"id": "285", "name": "Ancacolla"}, "type": "Feature"}, {"geometry": {"coordinates": [-69.278067, -18.980727], "type": "Point"}, "properties": {"id": "286", "name": "Amachuma"}, "type": "Feature"}, {"geometry": {"coordinates": [-69.294369, -18.938913], "type": "Point"}, "properties": {"id": "287", "name": "Chaya"}, "type": "Feature"}, {"geometry": {"coordinates": [-69.268431, -18.878091], "type": "Point"}, "properties": {"id": "288", "name": "Quilcune"}, "type": "Feature"}, {"geometry": {"coordinates": [-69.282742, -18.84505], "type": "Point"}, "properties": {"id": "289", "name": "Macusa"}, "type": "Feature"}, {"geometry": {"coordinates": [-69.239478, -18.908276], "type": "Point"}, "properties": {"id": "290", "name": "Chulumane"}, "type": "Feature"}, {"geometry": {"coordinates": [-69.208518, -18.878265], "type": "Point"}, "properties": {"id": "291", "name": "Parcohaylla"}, "type": "Feature"}, {"geometry": {"coordinates": [-69.235002, -18.914922], "type": "Point"}, "properties": {"id": "292", "name": "Taruguira"}, "type": "Feature"}, {"geometry": {"coordinates": [-69.453669, -17.95711], "type": "Point"}, "properties": {"id": "293", "name": "Colpitas"}, "type": "Feature"}, {"geometry": {"coordinates": [-69.322118, -17.912209], "type": "Point"}, "properties": {"id": "294", "name": "Nasahuento"}, "type": "Feature"}, {"geometry": {"coordinates": [-69.317183, -17.908398], "type": "Point"}, "properties": {"id": "295", "name": "Chacapalla"}, "type": "Feature"}, {"geometry": {"coordinates": [-69.332128, -17.898491], "type": "Point"}, "properties": {"id": "296", "name": "Choyota"}, "type": "Feature"}, {"geometry": {"coordinates": [-69.348366, -17.899419], "type": "Point"}, "properties": {"id": "297", "name": "Cayco"}, "type": "Feature"}, {"geometry": {"coordinates": [-69.308878, -17.88705], "type": "Point"}, "properties": {"id": "298", "name": "Palcata"}, "type": "Feature"}, {"geometry": {"coordinates": [-69.302321, -17.849753], "type": "Point"}, "properties": {"id": "299", "name": "Pampa Challuma"}, "type": "Feature"}, {"geometry": {"coordinates": [-69.312506, -17.819365], "type": "Point"}, "properties": {"id": "300", "name": "Challuma"}, "type": "Feature"}, {"geometry": {"coordinates": [-69.334532, -17.848266], "type": "Point"}, "properties": {"id": "301", "name": "Guanuni"}, "type": "Feature"}, {"geometry": {"coordinates": [-69.343978, -17.826009], "type": "Point"}, "properties": {"id": "302", "name": "Chujlluta"}, "type": "Feature"}, {"geometry": {"coordinates": [-69.345351, -17.760719], "type": "Point"}, "properties": {"id": "303", "name": "Guacollo"}, "type": "Feature"}, {"geometry": {"coordinates": [-69.344893, -17.782482], "type": "Point"}, "properties": {"id": "304", "name": "Mallotani"}, "type": "Feature"}, {"geometry": {"coordinates": [-69.331927, -17.790396], "type": "Point"}, "properties": {"id": "305", "name": "Uchusgualla"}, "type": "Feature"}, {"geometry": {"coordinates": [-69.332461, -17.809049], "type": "Point"}, "properties": {"id": "306", "name": "Pucar\u00df"}, "type": "Feature"}, {"geometry": {"coordinates": [-69.351703, -17.818103], "type": "Point"}, "properties": {"id": "307", "name": "Yscacollo"}, "type": "Feature"}, {"geometry": {"coordinates": [-69.351532, -17.730814], "type": "Point"}, "properties": {"id": "308", "name": "Humaquilca"}, "type": "Feature"}, {"geometry": {"coordinates": [-69.428588, -17.81221], "type": "Point"}, "properties": {"id": "309", "name": "Challepi\u00b1a"}, "type": "Feature"}, {"geometry": {"coordinates": [-69.424327, -17.764512], "type": "Point"}, "properties": {"id": "310", "name": "Cosapilla"}, "type": "Feature"}, {"geometry": {"coordinates": [-69.474527, -17.812821], "type": "Point"}, "properties": {"id": "311", "name": "Guaytojo"}, "type": "Feature"}, {"geometry": {"coordinates": [-69.535731, -17.825099], "type": "Point"}, "properties": {"id": "312", "name": "Palcota"}, "type": "Feature"}, {"geometry": {"coordinates": [-69.57981, -17.867062], "type": "Point"}, "properties": {"id": "313", "name": "Pauta"}, "type": "Feature"}, {"geometry": {"coordinates": [-69.066268, -19.823042], "type": "Point"}, "properties": {"id": "314", "name": "Cultane"}, "type": "Feature"}, {"geometry": {"coordinates": [-69.067377, -19.896168], "type": "Point"}, "properties": {"id": "315", "name": "Hurallapu"}, "type": "Feature"}, {"geometry": {"coordinates": [-69.110138, -19.854992], "type": "Point"}, "properties": {"id": "316", "name": "Bisagra"}, "type": "Feature"}, {"geometry": {"coordinates": [-69.138324, -19.864145], "type": "Point"}, "properties": {"id": "317", "name": "Coscaya"}, "type": "Feature"}, {"geometry": {"coordinates": [-69.143382, -19.867967], "type": "Point"}, "properties": {"id": "318", "name": "Colorado"}, "type": "Feature"}, {"geometry": {"coordinates": [-69.148176, -19.859834], "type": "Point"}, "properties": {"id": "319", "name": "Pillipampa"}, "type": "Feature"}, {"geometry": {"coordinates": [-69.172189, -19.864594], "type": "Point"}, "properties": {"id": "320", "name": "Cainilla"}, "type": "Feature"}, {"geometry": {"coordinates": [-69.18104, -19.869606], "type": "Point"}, "properties": {"id": "321", "name": "Poroma"}, "type": "Feature"}, {"geometry": {"coordinates": [-69.299514, -19.840755], "type": "Point"}, "properties": {"id": "322", "name": "Puchurca"}, "type": "Feature"}, {"geometry": {"coordinates": [-69.343765, -19.855499], "type": "Point"}, "properties": {"id": "323", "name": "Laonzana"}, "type": "Feature"}, {"geometry": {"coordinates": [-69.353876, -19.856914], "type": "Point"}, "properties": {"id": "324", "name": "La Isla"}, "type": "Feature"}, {"geometry": {"coordinates": [-69.353104, -19.850699], "type": "Point"}, "properties": {"id": "325", "name": "Uscuma"}, "type": "Feature"}, {"geometry": {"coordinates": [-69.362738, -19.864547], "type": "Point"}, "properties": {"id": "326", "name": "El Molino"}, "type": "Feature"}, {"geometry": {"coordinates": [-69.463125, -19.883597], "type": "Point"}, "properties": {"id": "327", "name": "Carora Bajo"}, "type": "Feature"}, {"geometry": {"coordinates": [-69.472706, -19.882061], "type": "Point"}, "properties": {"id": "328", "name": "Carora Al Frente"}, "type": "Feature"}, {"geometry": {"coordinates": [-69.482835, -19.885896], "type": "Point"}, "properties": {"id": "329", "name": "El Tranque"}, "type": "Feature"}, {"geometry": {"coordinates": [-69.472923, -19.895662], "type": "Point"}, "properties": {"id": "330", "name": "Mages"}, "type": "Feature"}, {"geometry": {"coordinates": [-69.475771, -19.898173], "type": "Point"}, "properties": {"id": "331", "name": "Caigua"}, "type": "Feature"}, {"geometry": {"coordinates": [-69.491781, -19.908876], "type": "Point"}, "properties": {"id": "332", "name": "Quillaguasa"}, "type": "Feature"}, {"geometry": {"coordinates": [-69.502656, -19.922951], "type": "Point"}, "properties": {"id": "333", "name": "Calacala"}, "type": "Feature"}, {"geometry": {"coordinates": [-69.386875, -19.863993], "type": "Point"}, "properties": {"id": "334", "name": "Mullimulli"}, "type": "Feature"}, {"geometry": {"coordinates": [-69.391657, -19.859616], "type": "Point"}, "properties": {"id": "335", "name": "La Apacheta"}, "type": "Feature"}, {"geometry": {"coordinates": [-69.401056, -19.856741], "type": "Point"}, "properties": {"id": "336", "name": "Calane"}, "type": "Feature"}, {"geometry": {"coordinates": [-69.41028, -19.855041], "type": "Point"}, "properties": {"id": "337", "name": "Angallapo"}, "type": "Feature"}, {"geometry": {"coordinates": [-69.415628, -19.863928], "type": "Point"}, "properties": {"id": "338", "name": "Alto La Luna"}, "type": "Feature"}, {"geometry": {"coordinates": [-69.424669, -19.860045], "type": "Point"}, "properties": {"id": "339", "name": "Icata"}, "type": "Feature"}, {"geometry": {"coordinates": [-69.448829, -19.867878], "type": "Point"}, "properties": {"id": "340", "name": "Pachica"}, "type": "Feature"}, {"geometry": {"coordinates": [-69.448836, -19.870228], "type": "Point"}, "properties": {"id": "341", "name": "Tainacha"}, "type": "Feature"}, {"geometry": {"coordinates": [-69.541557, -19.943015], "type": "Point"}, "properties": {"id": "342", "name": "Cruce Tarapac\u00df"}, "type": "Feature"}, {"geometry": {"coordinates": [-69.535186, -19.949583], "type": "Point"}, "properties": {"id": "343", "name": "Guarasi\u00b1a"}, "type": "Feature"}, {"geometry": {"coordinates": [-69.532493, -19.940692], "type": "Point"}, "properties": {"id": "344", "name": "Amalo"}, "type": "Feature"}, {"geometry": {"coordinates": [-69.520938, -19.936864], "type": "Point"}, "properties": {"id": "345", "name": "Aria"}, "type": "Feature"}, {"geometry": {"coordinates": [-69.51114, -19.926985], "type": "Point"}, "properties": {"id": "346", "name": "El Molino"}, "type": "Feature"}, {"geometry": {"coordinates": [-69.51095, -19.922956], "type": "Point"}, "properties": {"id": "347", "name": "Tarapac\u00df"}, "type": "Feature"}, {"geometry": {"coordinates": [-70.136442, -20.191545], "type": "Point"}, "properties": {"id": "348", "name": "Punta Negra"}, "type": "Feature"}, {"geometry": {"coordinates": [-68.607661, -19.538133], "type": "Point"}, "properties": {"id": "349", "name": "Guaytane"}, "type": "Feature"}, {"geometry": {"coordinates": [-68.598781, -19.543339], "type": "Point"}, "properties": {"id": "350", "name": "Yapucagua"}, "type": "Feature"}, {"geometry": {"coordinates": [-68.64876, -19.592288], "type": "Point"}, "properties": {"id": "351", "name": "Villablanca"}, "type": "Feature"}, {"geometry": {"coordinates": [-68.648481, -19.610462], "type": "Point"}, "properties": {"id": "352", "name": "Templanza"}, "type": "Feature"}, {"geometry": {"coordinates": [-68.653482, -19.62592], "type": "Point"}, "properties": {"id": "353", "name": "Chuayane De Villablanca"}, "type": "Feature"}, {"geometry": {"coordinates": [-68.673644, -19.61528], "type": "Point"}, "properties": {"id": "354", "name": "A\u00b1aguani"}, "type": "Feature"}, {"geometry": {"coordinates": [-68.690721, -19.586458], "type": "Point"}, "properties": {"id": "355", "name": "Lacalaca"}, "type": "Feature"}, {"geometry": {"coordinates": [-68.68925, -19.603267], "type": "Point"}, "properties": {"id": "356", "name": "Qachupujru"}, "type": "Feature"}, {"geometry": {"coordinates": [-68.682482, -19.631653], "type": "Point"}, "properties": {"id": "357", "name": "Picavilque"}, "type": "Feature"}, {"geometry": {"coordinates": [-68.657049, -19.640012], "type": "Point"}, "properties": {"id": "358", "name": "Chuayane"}, "type": "Feature"}, {"geometry": {"coordinates": [-68.660636, -19.644563], "type": "Point"}, "properties": {"id": "359", "name": "Rinc\u00ben Guanca"}, "type": "Feature"}, {"geometry": {"coordinates": [-68.622016, -19.65062], "type": "Point"}, "properties": {"id": "360", "name": "Janqoqharwani"}, "type": "Feature"}, {"geometry": {"coordinates": [-68.640023, -19.640661], "type": "Point"}, "properties": {"id": "361", "name": "Chulluncane"}, "type": "Feature"}, {"geometry": {"coordinates": [-68.578037, -19.595544], "type": "Point"}, "properties": {"id": "362", "name": "Churullo"}, "type": "Feature"}, {"geometry": {"coordinates": [-68.72151, -19.524032], "type": "Point"}, "properties": {"id": "363", "name": "Ancuaque"}, "type": "Feature"}, {"geometry": {"coordinates": [-68.714612, -19.495168], "type": "Point"}, "properties": {"id": "364", "name": "Umi\u00b1a"}, "type": "Feature"}, {"geometry": {"coordinates": [-68.737745, -19.555721], "type": "Point"}, "properties": {"id": "365", "name": "Chipi\u00b1a"}, "type": "Feature"}, {"geometry": {"coordinates": [-68.747776, -19.576108], "type": "Point"}, "properties": {"id": "366", "name": "Panalla"}, "type": "Feature"}, {"geometry": {"coordinates": [-68.793289, -19.635415], "type": "Point"}, "properties": {"id": "367", "name": "Lupe"}, "type": "Feature"}, {"geometry": {"coordinates": [-68.749808, -19.654642], "type": "Point"}, "properties": {"id": "368", "name": "Siso"}, "type": "Feature"}, {"geometry": {"coordinates": [-68.784331, -19.615846], "type": "Point"}, "properties": {"id": "369", "name": "Churullocat"}, "type": "Feature"}, {"geometry": {"coordinates": [-68.743436, -19.605019], "type": "Point"}, "properties": {"id": "370", "name": "Turuna"}, "type": "Feature"}, {"geometry": {"coordinates": [-68.644009, -19.468676], "type": "Point"}, "properties": {"id": "371", "name": "Cariquima"}, "type": "Feature"}, {"geometry": {"coordinates": [-68.506788, -19.423149], "type": "Point"}, "properties": {"id": "372", "name": "Panavinto"}, "type": "Feature"}, {"geometry": {"coordinates": [-68.482235, -19.417103], "type": "Point"}, "properties": {"id": "373", "name": "Challuma"}, "type": "Feature"}, {"geometry": {"coordinates": [-68.499594, -19.409025], "type": "Point"}, "properties": {"id": "374", "name": "Proyecto Panavinto"}, "type": "Feature"}, {"geometry": {"coordinates": [-68.543708, -19.388785], "type": "Point"}, "properties": {"id": "375", "name": "Vilacollo"}, "type": "Feature"}, {"geometry": {"coordinates": [-68.498817, -19.454211], "type": "Point"}, "properties": {"id": "376", "name": "Tulapampa"}, "type": "Feature"}, {"geometry": {"coordinates": [-68.577215, -19.355181], "type": "Point"}, "properties": {"id": "377", "name": "Misaluma"}, "type": "Feature"}, {"geometry": {"coordinates": [-68.550194, -19.332999], "type": "Point"}, "properties": {"id": "378", "name": "Pisiga Baquedano"}, "type": "Feature"}, {"geometry": {"coordinates": [-68.560029, -19.422688], "type": "Point"}, "properties": {"id": "379", "name": "Jaisuri"}, "type": "Feature"}, {"geometry": {"coordinates": [-68.58077, -19.442463], "type": "Point"}, "properties": {"id": "380", "name": "Chijo"}, "type": "Feature"}, {"geometry": {"coordinates": [-68.596451, -19.471789], "type": "Point"}, "properties": {"id": "381", "name": "Cariguani"}, "type": "Feature"}, {"geometry": {"coordinates": [-68.58277, -19.399429], "type": "Point"}, "properties": {"id": "382", "name": "Ancovinto"}, "type": "Feature"}, {"geometry": {"coordinates": [-69.13781, -18.068552], "type": "Point"}, "properties": {"id": "383", "name": "Zaracota"}, "type": "Feature"}, {"geometry": {"coordinates": [-69.11063, -18.085071], "type": "Point"}, "properties": {"id": "384", "name": "Quillaca"}, "type": "Feature"}, {"geometry": {"coordinates": [-69.149077, -18.086839], "type": "Point"}, "properties": {"id": "385", "name": "Culiculine"}, "type": "Feature"}, {"geometry": {"coordinates": [-69.204329, -18.024192], "type": "Point"}, "properties": {"id": "386", "name": "Autilla"}, "type": "Feature"}, {"geometry": {"coordinates": [-69.200802, -18.055225], "type": "Point"}, "properties": {"id": "387", "name": "Caquena"}, "type": "Feature"}, {"geometry": {"coordinates": [-69.140415, -18.043261], "type": "Point"}, "properties": {"id": "388", "name": "Pi\u00b1uta"}, "type": "Feature"}, {"geometry": {"coordinates": [-69.207619, -18.112253], "type": "Point"}, "properties": {"id": "389", "name": "Guaylla"}, "type": "Feature"}, {"geometry": {"coordinates": [-69.205592, -18.142926], "type": "Point"}, "properties": {"id": "390", "name": "Rinconada"}, "type": "Feature"}, {"geometry": {"coordinates": [-69.174254, -18.134527], "type": "Point"}, "properties": {"id": "391", "name": "Za\u00b1arana"}, "type": "Feature"}, {"geometry": {"coordinates": [-69.171424, -18.11767], "type": "Point"}, "properties": {"id": "392", "name": "Pacharaque"}, "type": "Feature"}, {"geometry": {"coordinates": [-69.188874, -18.123034], "type": "Point"}, "properties": {"id": "393", "name": "Vinto"}, "type": "Feature"}, {"geometry": {"coordinates": [-69.158458, -18.091315], "type": "Point"}, "properties": {"id": "394", "name": "Niquela"}, "type": "Feature"}, {"geometry": {"coordinates": [-69.199146, -18.083206], "type": "Point"}, "properties": {"id": "395", "name": "Pisacollo"}, "type": "Feature"}, {"geometry": {"coordinates": [-69.197659, -18.095404], "type": "Point"}, "properties": {"id": "396", "name": "Pisarata"}, "type": "Feature"}, {"geometry": {"coordinates": [-69.176815, -18.069417], "type": "Point"}, "properties": {"id": "397", "name": "Ancopillani"}, "type": "Feature"}, {"geometry": {"coordinates": [-69.165952, -18.083776], "type": "Point"}, "properties": {"id": "398", "name": "Ancochulpane"}, "type": "Feature"}, {"geometry": {"coordinates": [-69.168359, -18.05131], "type": "Point"}, "properties": {"id": "399", "name": "Ancovilque"}, "type": "Feature"}, {"geometry": {"coordinates": [-69.148039, -18.029879], "type": "Point"}, "properties": {"id": "400", "name": "Calachuani"}, "type": "Feature"}, {"geometry": {"coordinates": [-69.341517, -17.946701], "type": "Point"}, "properties": {"id": "401", "name": "Rosa Pampa"}, "type": "Feature"}, {"geometry": {"coordinates": [-69.195939, -18.04133], "type": "Point"}, "properties": {"id": "402", "name": "Vilque"}, "type": "Feature"}, {"geometry": {"coordinates": [-69.215832, -17.993778], "type": "Point"}, "properties": {"id": "403", "name": "Tambo Calborione"}, "type": "Feature"}, {"geometry": {"coordinates": [-69.186596, -17.998113], "type": "Point"}, "properties": {"id": "404", "name": "Ulluni"}, "type": "Feature"}, {"geometry": {"coordinates": [-69.21847, -18.004716], "type": "Point"}, "properties": {"id": "405", "name": "Guacuchuyo"}, "type": "Feature"}, {"geometry": {"coordinates": [-69.236464, -18.004157], "type": "Point"}, "properties": {"id": "406", "name": "Cacani"}, "type": "Feature"}, {"geometry": {"coordinates": [-69.263917, -17.990165], "type": "Point"}, "properties": {"id": "407", "name": "Achacuri"}, "type": "Feature"}, {"geometry": {"coordinates": [-69.275503, -17.967371], "type": "Point"}, "properties": {"id": "408", "name": "Angostura Alto"}, "type": "Feature"}, {"geometry": {"coordinates": [-69.284326, -17.976864], "type": "Point"}, "properties": {"id": "409", "name": "Angostura Bajo"}, "type": "Feature"}, {"geometry": {"coordinates": [-69.284696, -17.973814], "type": "Point"}, "properties": {"id": "410", "name": "Angostura"}, "type": "Feature"}, {"geometry": {"coordinates": [-69.279655, -17.985659], "type": "Point"}, "properties": {"id": "411", "name": "San Pablo"}, "type": "Feature"}, {"geometry": {"coordinates": [-69.241642, -18.012076], "type": "Point"}, "properties": {"id": "412", "name": "Colpacagua"}, "type": "Feature"}, {"geometry": {"coordinates": [-69.247493, -18.040408], "type": "Point"}, "properties": {"id": "413", "name": "Ungallire"}, "type": "Feature"}, {"geometry": {"coordinates": [-69.223294, -18.030931], "type": "Point"}, "properties": {"id": "414", "name": "Colpa"}, "type": "Feature"}, {"geometry": {"coordinates": [-69.226516, -18.057472], "type": "Point"}, "properties": {"id": "415", "name": "Lipiche"}, "type": "Feature"}, {"geometry": {"coordinates": [-69.265152, -18.064239], "type": "Point"}, "properties": {"id": "416", "name": "Pe\u00b1a Blanca"}, "type": "Feature"}, {"geometry": {"coordinates": [-69.277155, -18.065478], "type": "Point"}, "properties": {"id": "417", "name": "Pullapullani"}, "type": "Feature"}, {"geometry": {"coordinates": [-69.296254, -18.048948], "type": "Point"}, "properties": {"id": "418", "name": "Jayllave"}, "type": "Feature"}, {"geometry": {"coordinates": [-69.277986, -18.116952], "type": "Point"}, "properties": {"id": "419", "name": "Vilacollo"}, "type": "Feature"}, {"geometry": {"coordinates": [-69.258089, -18.106756], "type": "Point"}, "properties": {"id": "420", "name": "Achacala"}, "type": "Feature"}, {"geometry": {"coordinates": [-69.249657, -18.112866], "type": "Point"}, "properties": {"id": "421", "name": "Jupaje"}, "type": "Feature"}, {"geometry": {"coordinates": [-69.345109, -18.103033], "type": "Point"}, "properties": {"id": "422", "name": "Lagunilla"}, "type": "Feature"}, {"geometry": {"coordinates": [-69.362154, -18.091882], "type": "Point"}, "properties": {"id": "423", "name": "Cha\u00b1opalla"}, "type": "Feature"}, {"geometry": {"coordinates": [-69.41372, -18.08855], "type": "Point"}, "properties": {"id": "424", "name": "Palca"}, "type": "Feature"}, {"geometry": {"coordinates": [-69.357206, -18.056199], "type": "Point"}, "properties": {"id": "425", "name": "Humapalca"}, "type": "Feature"}, {"geometry": {"coordinates": [-69.327336, -18.237988], "type": "Point"}, "properties": {"id": "426", "name": "Ancochalloane"}, "type": "Feature"}, {"geometry": {"coordinates": [-69.324832, -18.219008], "type": "Point"}, "properties": {"id": "427", "name": "Ret\u00dan Chucuyo"}, "type": "Feature"}, {"geometry": {"coordinates": [-69.333271, -18.215586], "type": "Point"}, "properties": {"id": "428", "name": "Jachamacho"}, "type": "Feature"}, {"geometry": {"coordinates": [-69.305553, -18.209015], "type": "Point"}, "properties": {"id": "429", "name": "Cruzani"}, "type": "Feature"}, {"geometry": {"coordinates": [-69.273374, -18.197745], "type": "Point"}, "properties": {"id": "430", "name": "Viluyo"}, "type": "Feature"}, {"geometry": {"coordinates": [-69.266626, -18.202776], "type": "Point"}, "properties": {"id": "431", "name": "Parinacota"}, "type": "Feature"}, {"geometry": {"coordinates": [-69.269637, -18.208332], "type": "Point"}, "properties": {"id": "432", "name": "Pojoroco"}, "type": "Feature"}, {"geometry": {"coordinates": [-69.266644, -18.214614], "type": "Point"}, "properties": {"id": "433", "name": "Acharrancho"}, "type": "Feature"}, {"geometry": {"coordinates": [-69.768322, -19.99598], "type": "Point"}, "properties": {"id": "434", "name": "Huara"}, "type": "Feature"}, {"geometry": {"coordinates": [-69.681309, -19.978], "type": "Point"}, "properties": {"id": "435", "name": "La Cantera"}, "type": "Feature"}, {"geometry": {"coordinates": [-69.736814, -20.085962], "type": "Point"}, "properties": {"id": "436", "name": "Mapocho"}, "type": "Feature"}, {"geometry": {"coordinates": [-69.644417, -18.197554], "type": "Point"}, "properties": {"id": "437", "name": "Ancolacaya"}, "type": "Feature"}, {"geometry": {"coordinates": [-69.633557, -18.203927], "type": "Point"}, "properties": {"id": "438", "name": "Ancache"}, "type": "Feature"}, {"geometry": {"coordinates": [-69.613027, -18.200406], "type": "Point"}, "properties": {"id": "439", "name": "Curaguara"}, "type": "Feature"}, {"geometry": {"coordinates": [-69.595777, -18.204526], "type": "Point"}, "properties": {"id": "440", "name": "Lluscuma"}, "type": "Feature"}, {"geometry": {"coordinates": [-69.559594, -18.195667], "type": "Point"}, "properties": {"id": "441", "name": "Putre"}, "type": "Feature"}, {"geometry": {"coordinates": [-69.566257, -18.205811], "type": "Point"}, "properties": {"id": "442", "name": "Ollada"}, "type": "Feature"}, {"geometry": {"coordinates": [-69.526016, -18.178903], "type": "Point"}, "properties": {"id": "443", "name": "Morocruz"}, "type": "Feature"}, {"geometry": {"coordinates": [-69.531186, -18.19252], "type": "Point"}, "properties": {"id": "444", "name": "Ancoma"}, "type": "Feature"}, {"geometry": {"coordinates": [-69.548169, -18.182787], "type": "Point"}, "properties": {"id": "445", "name": "Vilaque"}, "type": "Feature"}, {"geometry": {"coordinates": [-69.562426, -18.181789], "type": "Point"}, "properties": {"id": "446", "name": "Bendecita"}, "type": "Feature"}, {"geometry": {"coordinates": [-69.592641, -18.16484], "type": "Point"}, "properties": {"id": "447", "name": "Surunche"}, "type": "Feature"}, {"geometry": {"coordinates": [-69.508272, -18.185169], "type": "Point"}, "properties": {"id": "448", "name": "Sector Camino Internacional"}, "type": "Feature"}, {"geometry": {"coordinates": [-69.502739, -18.175139], "type": "Point"}, "properties": {"id": "449", "name": "Pacollo"}, "type": "Feature"}, {"geometry": {"coordinates": [-69.544528, -18.23616], "type": "Point"}, "properties": {"id": "450", "name": "Quillane"}, "type": "Feature"}, {"geometry": {"coordinates": [-69.480666, -18.199588], "type": "Point"}, "properties": {"id": "451", "name": "Japane"}, "type": "Feature"}, {"geometry": {"coordinates": [-69.492762, -18.185687], "type": "Point"}, "properties": {"id": "452", "name": "Pioco"}, "type": "Feature"}, {"geometry": {"coordinates": [-69.432797, -18.167478], "type": "Point"}, "properties": {"id": "453", "name": "Las Cuevas"}, "type": "Feature"}, {"geometry": {"coordinates": [-69.453422, -18.16205], "type": "Point"}, "properties": {"id": "454", "name": "Taipicahue"}, "type": "Feature"}, {"geometry": {"coordinates": [-69.457518, -18.150203], "type": "Point"}, "properties": {"id": "455", "name": "Llancoma"}, "type": "Feature"}, {"geometry": {"coordinates": [-69.536146, -18.157712], "type": "Point"}, "properties": {"id": "456", "name": "Pairumani"}, "type": "Feature"}, {"geometry": {"coordinates": [-69.541502, -18.129897], "type": "Point"}, "properties": {"id": "457", "name": "LLaytuma"}, "type": "Feature"}, {"geometry": {"coordinates": [-69.571164, -18.137524], "type": "Point"}, "properties": {"id": "458", "name": "Guanuni"}, "type": "Feature"}, {"geometry": {"coordinates": [-69.578808, -18.123332], "type": "Point"}, "properties": {"id": "459", "name": "Ubine"}, "type": "Feature"}, {"geometry": {"coordinates": [-69.558242, -18.085191], "type": "Point"}, "properties": {"id": "460", "name": "Casoachane"}, "type": "Feature"}, {"geometry": {"coordinates": [-69.526305, -18.06609], "type": "Point"}, "properties": {"id": "461", "name": "Amachuma"}, "type": "Feature"}, {"geometry": {"coordinates": [-69.499833, -18.054502], "type": "Point"}, "properties": {"id": "462", "name": "Vilavilani"}, "type": "Feature"}, {"geometry": {"coordinates": [-69.469702, -18.075742], "type": "Point"}, "properties": {"id": "463", "name": "Muntirune"}, "type": "Feature"}, {"geometry": {"coordinates": [-69.476823, -18.073931], "type": "Point"}, "properties": {"id": "464", "name": "Japocota"}, "type": "Feature"}, {"geometry": {"coordinates": [-69.482634, -18.073199], "type": "Point"}, "properties": {"id": "465", "name": "Curacuara"}, "type": "Feature"}, {"geometry": {"coordinates": [-69.418951, -18.025459], "type": "Point"}, "properties": {"id": "466", "name": "Quemahu\u00b1a"}, "type": "Feature"}, {"geometry": {"coordinates": [-69.947619, -18.866293], "type": "Point"}, "properties": {"id": "467", "name": "Chaqui"}, "type": "Feature"}, {"geometry": {"coordinates": [-69.995499, -18.875451], "type": "Point"}, "properties": {"id": "468", "name": "Calaunsa"}, "type": "Feature"}, {"geometry": {"coordinates": [-69.866918, -18.849996], "type": "Point"}, "properties": {"id": "469", "name": "Cachicoca"}, "type": "Feature"}, {"geometry": {"coordinates": [-69.78557, -18.830879], "type": "Point"}, "properties": {"id": "470", "name": "Cerro Blanco"}, "type": "Feature"}, {"geometry": {"coordinates": [-69.798946, -18.838269], "type": "Point"}, "properties": {"id": "471", "name": "Bellavista"}, "type": "Feature"}, {"geometry": {"coordinates": [-69.770678, -18.835713], "type": "Point"}, "properties": {"id": "472", "name": "Cerro Blanco"}, "type": "Feature"}, {"geometry": {"coordinates": [-69.739762, -18.829502], "type": "Point"}, "properties": {"id": "473", "name": "Incauta"}, "type": "Feature"}, {"geometry": {"coordinates": [-69.735607, -18.826769], "type": "Point"}, "properties": {"id": "474", "name": "Poroma"}, "type": "Feature"}, {"geometry": {"coordinates": [-69.730952, -18.824516], "type": "Point"}, "properties": {"id": "475", "name": "Marquirave"}, "type": "Feature"}, {"geometry": {"coordinates": [-69.722413, -18.82419], "type": "Point"}, "properties": {"id": "476", "name": "Guatanave"}, "type": "Feature"}, {"geometry": {"coordinates": [-69.712598, -18.819087], "type": "Point"}, "properties": {"id": "477", "name": "Gua\u00b1acagua"}, "type": "Feature"}, {"geometry": {"coordinates": [-69.696567, -18.828712], "type": "Point"}, "properties": {"id": "478", "name": "Sabayane"}, "type": "Feature"}, {"geometry": {"coordinates": [-69.684302, -18.838442], "type": "Point"}, "properties": {"id": "479", "name": "Chitita"}, "type": "Feature"}, {"geometry": {"coordinates": [-69.666811, -18.82894], "type": "Point"}, "properties": {"id": "480", "name": "Inquieta"}, "type": "Feature"}, {"geometry": {"coordinates": [-69.639773, -18.850914], "type": "Point"}, "properties": {"id": "481", "name": "Mollegrande"}, "type": "Feature"}, {"geometry": {"coordinates": [-69.599668, -18.837896], "type": "Point"}, "properties": {"id": "482", "name": "Sitima"}, "type": "Feature"}, {"geometry": {"coordinates": [-69.588758, -18.841996], "type": "Point"}, "properties": {"id": "483", "name": "Julumaya"}, "type": "Feature"}, {"geometry": {"coordinates": [-69.54388, -18.82647], "type": "Point"}, "properties": {"id": "484", "name": "Vilavila Dos"}, "type": "Feature"}, {"geometry": {"coordinates": [-69.634114, -18.815186], "type": "Point"}, "properties": {"id": "485", "name": "Palca"}, "type": "Feature"}, {"geometry": {"coordinates": [-69.640074, -18.79759], "type": "Point"}, "properties": {"id": "486", "name": "Palca"}, "type": "Feature"}, {"geometry": {"coordinates": [-69.592157, -18.808389], "type": "Point"}, "properties": {"id": "487", "name": "Sivitaya"}, "type": "Feature"}, {"geometry": {"coordinates": [-69.537507, -18.789255], "type": "Point"}, "properties": {"id": "488", "name": "Cuturata"}, "type": "Feature"}, {"geometry": {"coordinates": [-69.579856, -18.755925], "type": "Point"}, "properties": {"id": "489", "name": "Umirpa"}, "type": "Feature"}, {"geometry": {"coordinates": [-69.569251, -18.751474], "type": "Point"}, "properties": {"id": "490", "name": "Vilcane"}, "type": "Feature"}, {"geometry": {"coordinates": [-69.583686, -18.729012], "type": "Point"}, "properties": {"id": "491", "name": "Tulapalca"}, "type": "Feature"}, {"geometry": {"coordinates": [-69.57428, -18.730722], "type": "Point"}, "properties": {"id": "492", "name": "Cainilla"}, "type": "Feature"}, {"geometry": {"coordinates": [-69.43306, -18.789762], "type": "Point"}, "properties": {"id": "493", "name": "Quebrada de Aico"}, "type": "Feature"}, {"geometry": {"coordinates": [-69.460944, -18.801465], "type": "Point"}, "properties": {"id": "494", "name": "Saitocoya"}, "type": "Feature"}, {"geometry": {"coordinates": [-69.429833, -18.754835], "type": "Point"}, "properties": {"id": "495", "name": "Achacagua"}, "type": "Feature"}, {"geometry": {"coordinates": [-69.406186, -17.749228], "type": "Point"}, "properties": {"id": "496", "name": "Pucoyo"}, "type": "Feature"}, {"geometry": {"coordinates": [-69.412695, -17.758539], "type": "Point"}, "properties": {"id": "497", "name": "Castilluma"}, "type": "Feature"}, {"geometry": {"coordinates": [-69.427003, -17.774505], "type": "Point"}, "properties": {"id": "498", "name": "Limanipalca"}, "type": "Feature"}, {"geometry": {"coordinates": [-69.431806, -17.781012], "type": "Point"}, "properties": {"id": "499", "name": "Limani"}, "type": "Feature"}, {"geometry": {"coordinates": [-69.452665, -17.712048], "type": "Point"}, "properties": {"id": "500", "name": "Guayancallane"}, "type": "Feature"}, {"geometry": {"coordinates": [-69.438286, -17.705198], "type": "Point"}, "properties": {"id": "501", "name": "Cruzvilque"}, "type": "Feature"}, {"geometry": {"coordinates": [-69.461034, -17.723796], "type": "Point"}, "properties": {"id": "502", "name": "Javiruta"}, "type": "Feature"}, {"geometry": {"coordinates": [-69.558697, -17.76617], "type": "Point"}, "properties": {"id": "503", "name": "Patilla"}, "type": "Feature"}, {"geometry": {"coordinates": [-69.566574, -17.765704], "type": "Point"}, "properties": {"id": "504", "name": "Sajolla"}, "type": "Feature"}, {"geometry": {"coordinates": [-69.567519, -17.714427], "type": "Point"}, "properties": {"id": "505", "name": "Chapoco"}, "type": "Feature"}, {"geometry": {"coordinates": [-69.543962, -17.726808], "type": "Point"}, "properties": {"id": "506", "name": "Putani"}, "type": "Feature"}, {"geometry": {"coordinates": [-69.552398, -17.711001], "type": "Point"}, "properties": {"id": "507", "name": "Parcoma"}, "type": "Feature"}, {"geometry": {"coordinates": [-69.555616, -17.702622], "type": "Point"}, "properties": {"id": "508", "name": "Quiumavichinca"}, "type": "Feature"}, {"geometry": {"coordinates": [-69.552839, -17.692107], "type": "Point"}, "properties": {"id": "509", "name": "Pucar\u00df"}, "type": "Feature"}, {"geometry": {"coordinates": [-69.548578, -17.685423], "type": "Point"}, "properties": {"id": "510", "name": "Pucar\u00df Chico"}, "type": "Feature"}, {"geometry": {"coordinates": [-69.536282, -17.661303], "type": "Point"}, "properties": {"id": "511", "name": "Piuta"}, "type": "Feature"}, {"geometry": {"coordinates": [-69.520284, -17.649867], "type": "Point"}, "properties": {"id": "512", "name": "Piasalla"}, "type": "Feature"}, {"geometry": {"coordinates": [-69.529599, -17.679257], "type": "Point"}, "properties": {"id": "513", "name": "Cancuane"}, "type": "Feature"}, {"geometry": {"coordinates": [-69.518974, -17.714919], "type": "Point"}, "properties": {"id": "514", "name": "Putani Norte"}, "type": "Feature"}, {"geometry": {"coordinates": [-69.492096, -17.649222], "type": "Point"}, "properties": {"id": "515", "name": "Cuyuma"}, "type": "Feature"}, {"geometry": {"coordinates": [-69.495285, -17.629604], "type": "Point"}, "properties": {"id": "516", "name": "Quiu\u00b1avichinca"}, "type": "Feature"}, {"geometry": {"coordinates": [-69.464553, -17.608394], "type": "Point"}, "properties": {"id": "517", "name": "Cabuta"}, "type": "Feature"}, {"geometry": {"coordinates": [-69.47704, -17.615061], "type": "Point"}, "properties": {"id": "518", "name": "Pacocagua"}, "type": "Feature"}, {"geometry": {"coordinates": [-69.474745, -17.595934], "type": "Point"}, "properties": {"id": "519", "name": "Visviri"}, "type": "Feature"}, {"geometry": {"coordinates": [-69.475019, -17.605021], "type": "Point"}, "properties": {"id": "520", "name": "Choropampa"}, "type": "Feature"}, {"geometry": {"coordinates": [-69.518511, -17.553016], "type": "Point"}, "properties": {"id": "521", "name": "Calvariune"}, "type": "Feature"}, {"geometry": {"coordinates": [-69.521016, -17.557314], "type": "Point"}, "properties": {"id": "522", "name": "Culco"}, "type": "Feature"}, {"geometry": {"coordinates": [-69.536747, -17.565643], "type": "Point"}, "properties": {"id": "523", "name": "Chijllani Alto"}, "type": "Feature"}, {"geometry": {"coordinates": [-69.500451, -17.603763], "type": "Point"}, "properties": {"id": "524", "name": "Bocatoma"}, "type": "Feature"}, {"geometry": {"coordinates": [-69.506474, -17.61714], "type": "Point"}, "properties": {"id": "525", "name": "Huamaquilca Chico"}, "type": "Feature"}, {"geometry": {"coordinates": [-69.52898, -17.638126], "type": "Point"}, "properties": {"id": "526", "name": "Pucarani"}, "type": "Feature"}, {"geometry": {"coordinates": [-69.537227, -17.643604], "type": "Point"}, "properties": {"id": "527", "name": "Colpitas"}, "type": "Feature"}, {"geometry": {"coordinates": [-69.548176, -17.635204], "type": "Point"}, "properties": {"id": "528", "name": "Challao"}, "type": "Feature"}, {"geometry": {"coordinates": [-69.559342, -17.616519], "type": "Point"}, "properties": {"id": "529", "name": "Casca"}, "type": "Feature"}, {"geometry": {"coordinates": [-69.568044, -17.607885], "type": "Point"}, "properties": {"id": "530", "name": "Pampa Pi\u00b1uta"}, "type": "Feature"}, {"geometry": {"coordinates": [-69.606725, -17.61614], "type": "Point"}, "properties": {"id": "531", "name": "Chayopujo"}, "type": "Feature"}, {"geometry": {"coordinates": [-69.602038, -17.631698], "type": "Point"}, "properties": {"id": "532", "name": "Chapi"}, "type": "Feature"}, {"geometry": {"coordinates": [-69.585145, -17.652316], "type": "Point"}, "properties": {"id": "533", "name": "Ilabe"}, "type": "Feature"}, {"geometry": {"coordinates": [-69.568729, -17.667191], "type": "Point"}, "properties": {"id": "534", "name": "Alto Ilabe"}, "type": "Feature"}, {"geometry": {"coordinates": [-69.635279, -17.651682], "type": "Point"}, "properties": {"id": "535", "name": "General Lagos"}, "type": "Feature"}, {"geometry": {"coordinates": [-69.602358, -17.652981], "type": "Point"}, "properties": {"id": "536", "name": "Challacerca"}, "type": "Feature"}, {"geometry": {"coordinates": [-69.606698, -17.682622], "type": "Point"}, "properties": {"id": "537", "name": "Pilloco"}, "type": "Feature"}, {"geometry": {"coordinates": [-69.680862, -17.701272], "type": "Point"}, "properties": {"id": "538", "name": "Surapalca"}, "type": "Feature"}, {"geometry": {"coordinates": [-69.683078, -17.693372], "type": "Point"}, "properties": {"id": "539", "name": "Chislluma Viejo"}, "type": "Feature"}, {"geometry": {"coordinates": [-69.679441, -17.721364], "type": "Point"}, "properties": {"id": "540", "name": "Cantutani"}, "type": "Feature"}, {"geometry": {"coordinates": [-69.672175, -17.713259], "type": "Point"}, "properties": {"id": "541", "name": "Cancuyane"}, "type": "Feature"}, {"geometry": {"coordinates": [-69.627308, -17.72656], "type": "Point"}, "properties": {"id": "542", "name": "Pochoni"}, "type": "Feature"}, {"geometry": {"coordinates": [-69.657799, -17.671218], "type": "Point"}, "properties": {"id": "543", "name": "Pamputa"}, "type": "Feature"}, {"geometry": {"coordinates": [-69.648837, -17.676509], "type": "Point"}, "properties": {"id": "544", "name": "Amo\u00b1oconi"}, "type": "Feature"}, {"geometry": {"coordinates": [-69.360208, -20.512018], "type": "Point"}, "properties": {"id": "545", "name": "Matilla"}, "type": "Feature"}, {"geometry": {"coordinates": [-69.375578, -20.480567], "type": "Point"}, "properties": {"id": "546", "name": "Comi\u00b1a"}, "type": "Feature"}, {"geometry": {"coordinates": [-69.426861, -20.480786], "type": "Point"}, "properties": {"id": "547", "name": "Esmeralda"}, "type": "Feature"}, {"geometry": {"coordinates": [-69.383801, -20.509337], "type": "Point"}, "properties": {"id": "548", "name": "Bajo Matilla"}, "type": "Feature"}, {"geometry": {"coordinates": [-69.392821, -20.363956], "type": "Point"}, "properties": {"id": "549", "name": "La Calera"}, "type": "Feature"}, {"geometry": {"coordinates": [-69.331862, -20.516369], "type": "Point"}, "properties": {"id": "550", "name": "Valle Quisma"}, "type": "Feature"}, {"geometry": {"coordinates": [-69.351579, -20.60237], "type": "Point"}, "properties": {"id": "551", "name": "P\u00b7quio N\u00b7\u00b1ez"}, "type": "Feature"}, {"geometry": {"coordinates": [-69.315606, -20.578138], "type": "Point"}, "properties": {"id": "552", "name": "P\u00b7quio Santa Rosita"}, "type": "Feature"}, {"geometry": {"coordinates": [-69.107726, -20.640295], "type": "Point"}, "properties": {"id": "553", "name": "Chacarilla"}, "type": "Feature"}, {"geometry": {"coordinates": [-69.793074, -20.206529], "type": "Point"}, "properties": {"id": "554", "name": "Humberston"}, "type": "Feature"}, {"geometry": {"coordinates": [-69.811359, -20.210961], "type": "Point"}, "properties": {"id": "555", "name": "Santa Laura"}, "type": "Feature"}, {"geometry": {"coordinates": [-69.784631, -20.257056], "type": "Point"}, "properties": {"id": "556", "name": "Pozo Almonte"}, "type": "Feature"}, {"geometry": {"coordinates": [-69.791654, -20.26975], "type": "Point"}, "properties": {"id": "557", "name": "Carmen Bajo"}, "type": "Feature"}, {"geometry": {"coordinates": [-69.802293, -20.223727], "type": "Point"}, "properties": {"id": "558", "name": "Calacala"}, "type": "Feature"}, {"geometry": {"coordinates": [-69.747512, -20.135303], "type": "Point"}, "properties": {"id": "559", "name": "Baquedano"}, "type": "Feature"}, {"geometry": {"coordinates": [-69.778612, -20.184017], "type": "Point"}, "properties": {"id": "560", "name": "El Bosque"}, "type": "Feature"}, {"geometry": {"coordinates": [-69.651497, -20.249392], "type": "Point"}, "properties": {"id": "561", "name": "Cruce Mami\u00b1a (p)"}, "type": "Feature"}, {"geometry": {"coordinates": [-69.759705, -20.319149], "type": "Point"}, "properties": {"id": "562", "name": "Sara"}, "type": "Feature"}, {"geometry": {"coordinates": [-69.624367, -19.412548], "type": "Point"}, "properties": {"id": "563", "name": "Calatambo"}, "type": "Feature"}, {"geometry": {"coordinates": [-69.60461, -19.406374], "type": "Point"}, "properties": {"id": "564", "name": "Cabrane"}, "type": "Feature"}, {"geometry": {"coordinates": [-69.604186, -19.41012], "type": "Point"}, "properties": {"id": "565", "name": "Pacagua"}, "type": "Feature"}, {"geometry": {"coordinates": [-69.587906, -19.394986], "type": "Point"}, "properties": {"id": "566", "name": "Yalamanta"}, "type": "Feature"}, {"geometry": {"coordinates": [-69.575591, -19.384416], "type": "Point"}, "properties": {"id": "567", "name": "Compe"}, "type": "Feature"}, {"geometry": {"coordinates": [-69.564376, -19.374465], "type": "Point"}, "properties": {"id": "568", "name": "Francia"}, "type": "Feature"}, {"geometry": {"coordinates": [-69.561326, -19.379883], "type": "Point"}, "properties": {"id": "569", "name": "Alto Lima"}, "type": "Feature"}, {"geometry": {"coordinates": [-69.536722, -19.364562], "type": "Point"}, "properties": {"id": "570", "name": "Quecho"}, "type": "Feature"}, {"geometry": {"coordinates": [-69.542654, -19.368498], "type": "Point"}, "properties": {"id": "571", "name": "Saopagua"}, "type": "Feature"}, {"geometry": {"coordinates": [-69.556378, -19.370958], "type": "Point"}, "properties": {"id": "572", "name": "Guajasia"}, "type": "Feature"}, {"geometry": {"coordinates": [-69.516939, -19.351029], "type": "Point"}, "properties": {"id": "573", "name": "Moquella"}, "type": "Feature"}, {"geometry": {"coordinates": [-69.529481, -19.357723], "type": "Point"}, "properties": {"id": "574", "name": "Yala\u00b1uzco"}, "type": "Feature"}, {"geometry": {"coordinates": [-69.512233, -19.358491], "type": "Point"}, "properties": {"id": "575", "name": "Chillayza Arriba"}, "type": "Feature"}, {"geometry": {"coordinates": [-69.532804, -19.331891], "type": "Point"}, "properties": {"id": "576", "name": "Sai\u00b1a"}, "type": "Feature"}, {"geometry": {"coordinates": [-69.493151, -19.34076], "type": "Point"}, "properties": {"id": "577", "name": "Quistagama"}, "type": "Feature"}, {"geometry": {"coordinates": [-69.488247, -19.348148], "type": "Point"}, "properties": {"id": "578", "name": "Chijllani"}, "type": "Feature"}, {"geometry": {"coordinates": [-69.501725, -19.356026], "type": "Point"}, "properties": {"id": "579", "name": "Chiguire"}, "type": "Feature"}, {"geometry": {"coordinates": [-69.427505, -19.309089], "type": "Point"}, "properties": {"id": "580", "name": "Cami\u00b1a"}, "type": "Feature"}, {"geometry": {"coordinates": [-69.433735, -19.30044], "type": "Point"}, "properties": {"id": "581", "name": "Alto Cami\u00b1a"}, "type": "Feature"}, {"geometry": {"coordinates": [-69.442839, -19.304556], "type": "Point"}, "properties": {"id": "582", "name": "Camping"}, "type": "Feature"}, {"geometry": {"coordinates": [-69.442657, -19.307434], "type": "Point"}, "properties": {"id": "583", "name": "Botijeria"}, "type": "Feature"}, {"geometry": {"coordinates": [-69.449296, -19.310296], "type": "Point"}, "properties": {"id": "584", "name": "Putusquima"}, "type": "Feature"}, {"geometry": {"coordinates": [-69.453286, -19.314603], "type": "Point"}, "properties": {"id": "585", "name": "Llostoja"}, "type": "Feature"}, {"geometry": {"coordinates": [-69.461625, -19.315301], "type": "Point"}, "properties": {"id": "586", "name": "Molino"}, "type": "Feature"}, {"geometry": {"coordinates": [-69.458812, -19.325921], "type": "Point"}, "properties": {"id": "587", "name": "Biljagua"}, "type": "Feature"}, {"geometry": {"coordinates": [-69.426576, -19.315926], "type": "Point"}, "properties": {"id": "588", "name": "San Antonio"}, "type": "Feature"}, {"geometry": {"coordinates": [-69.42625, -19.336252], "type": "Point"}, "properties": {"id": "589", "name": "Calacala"}, "type": "Feature"}, {"geometry": {"coordinates": [-69.450307, -19.333676], "type": "Point"}, "properties": {"id": "590", "name": "Cachispampa"}, "type": "Feature"}, {"geometry": {"coordinates": [-69.475696, -19.333072], "type": "Point"}, "properties": {"id": "591", "name": "Cuisama"}, "type": "Feature"}, {"geometry": {"coordinates": [-69.470379, -19.329129], "type": "Point"}, "properties": {"id": "592", "name": "Cuisama Alto"}, "type": "Feature"}, {"geometry": {"coordinates": [-69.469257, -19.334168], "type": "Point"}, "properties": {"id": "593", "name": "Padruza"}, "type": "Feature"}, {"geometry": {"coordinates": [-69.287708, -19.204911], "type": "Point"}, "properties": {"id": "594", "name": "Alpajere"}, "type": "Feature"}, {"geometry": {"coordinates": [-69.313611, -19.193869], "type": "Point"}, "properties": {"id": "595", "name": "Catiza"}, "type": "Feature"}, {"geometry": {"coordinates": [-69.368479, -19.194724], "type": "Point"}, "properties": {"id": "596", "name": "Lisuma"}, "type": "Feature"}, {"geometry": {"coordinates": [-69.358342, -19.162463], "type": "Point"}, "properties": {"id": "597", "name": "Chaquera"}, "type": "Feature"}, {"geometry": {"coordinates": [-69.33211, -19.131428], "type": "Point"}, "properties": {"id": "598", "name": "Paga"}, "type": "Feature"}, {"geometry": {"coordinates": [-69.417797, -19.192434], "type": "Point"}, "properties": {"id": "599", "name": "Nama"}, "type": "Feature"}, {"geometry": {"coordinates": [-69.408304, -19.318118], "type": "Point"}, "properties": {"id": "600", "name": "Juiruro"}, "type": "Feature"}, {"geometry": {"coordinates": [-69.414435, -19.316268], "type": "Point"}, "properties": {"id": "601", "name": "Potrero"}, "type": "Feature"}, {"geometry": {"coordinates": [-69.408326, -19.316716], "type": "Point"}, "properties": {"id": "602", "name": "Calarrancho"}, "type": "Feature"}, {"geometry": {"coordinates": [-69.412223, -19.315273], "type": "Point"}, "properties": {"id": "603", "name": "Bellavista"}, "type": "Feature"}, {"geometry": {"coordinates": [-69.411259, -19.311091], "type": "Point"}, "properties": {"id": "604", "name": "Azogane"}, "type": "Feature"}, {"geometry": {"coordinates": [-69.409584, -19.308041], "type": "Point"}, "properties": {"id": "605", "name": "Challa"}, "type": "Feature"}, {"geometry": {"coordinates": [-69.403766, -19.315631], "type": "Point"}, "properties": {"id": "606", "name": "Chapiquilta"}, "type": "Feature"}, {"geometry": {"coordinates": [-69.395057, -19.310222], "type": "Point"}, "properties": {"id": "607", "name": "Yalayala"}, "type": "Feature"}, {"geometry": {"coordinates": [-69.380626, -19.302449], "type": "Point"}, "properties": {"id": "608", "name": "Chico Apamilca"}, "type": "Feature"}, {"geometry": {"coordinates": [-69.391825, -19.30367], "type": "Point"}, "properties": {"id": "609", "name": "Amapilca"}, "type": "Feature"}, {"geometry": {"coordinates": [-69.384265, -19.279823], "type": "Point"}, "properties": {"id": "610", "name": "Altuza"}, "type": "Feature"}, {"geometry": {"coordinates": [-69.379576, -19.312064], "type": "Point"}, "properties": {"id": "611", "name": "Cerro Blanco"}, "type": "Feature"}, {"geometry": {"coordinates": [-69.387396, -19.294179], "type": "Point"}, "properties": {"id": "612", "name": "San Bartolo"}, "type": "Feature"}, {"geometry": {"coordinates": [-68.880933, -19.322341], "type": "Point"}, "properties": {"id": "613", "name": "Mauque"}, "type": "Feature"}, {"geometry": {"coordinates": [-68.978297, -19.258092], "type": "Point"}, "properties": {"id": "614", "name": "Vizcachani"}, "type": "Feature"}, {"geometry": {"coordinates": [-68.924205, -19.210084], "type": "Point"}, "properties": {"id": "615", "name": "Chaguane"}, "type": "Feature"}, {"geometry": {"coordinates": [-68.913279, -19.166679], "type": "Point"}, "properties": {"id": "616", "name": "Chachacomani"}, "type": "Feature"}, {"geometry": {"coordinates": [-68.949133, -19.181757], "type": "Point"}, "properties": {"id": "617", "name": "Alpajere"}, "type": "Feature"}, {"geometry": {"coordinates": [-68.877894, -19.207429], "type": "Point"}, "properties": {"id": "618", "name": "Talpicollo"}, "type": "Feature"}, {"geometry": {"coordinates": [-68.836379, -19.191854], "type": "Point"}, "properties": {"id": "619", "name": "Cacharpaya"}, "type": "Feature"}, {"geometry": {"coordinates": [-68.804372, -19.229603], "type": "Point"}, "properties": {"id": "620", "name": "Enquelga"}, "type": "Feature"}, {"geometry": {"coordinates": [-68.814684, -19.237026], "type": "Point"}, "properties": {"id": "621", "name": "Chapicollo"}, "type": "Feature"}, {"geometry": {"coordinates": [-68.803347, -19.244427], "type": "Point"}, "properties": {"id": "622", "name": "Caraguano"}, "type": "Feature"}, {"geometry": {"coordinates": [-68.841364, -19.24279], "type": "Point"}, "properties": {"id": "623", "name": "Tulacalasta"}, "type": "Feature"}, {"geometry": {"coordinates": [-68.869319, -19.229661], "type": "Point"}, "properties": {"id": "624", "name": "Aguas Calientes"}, "type": "Feature"}, {"geometry": {"coordinates": [-68.861018, -19.221525], "type": "Point"}, "properties": {"id": "625", "name": "Aravilla"}, "type": "Feature"}, {"geometry": {"coordinates": [-68.859746, -19.237544], "type": "Point"}, "properties": {"id": "626", "name": "Anculba"}, "type": "Feature"}, {"geometry": {"coordinates": [-68.728599, -19.230463], "type": "Point"}, "properties": {"id": "627", "name": "Cuchuguano Dos"}, "type": "Feature"}, {"geometry": {"coordinates": [-68.729051, -19.261548], "type": "Point"}, "properties": {"id": "628", "name": "Cuchuguano Uno"}, "type": "Feature"}, {"geometry": {"coordinates": [-68.690249, -19.27679], "type": "Point"}, "properties": {"id": "629", "name": "Escapi\u00b1a"}, "type": "Feature"}, {"geometry": {"coordinates": [-68.759511, -19.265416], "type": "Point"}, "properties": {"id": "630", "name": "Lampaipata"}, "type": "Feature"}, {"geometry": {"coordinates": [-68.760539, -19.25131], "type": "Point"}, "properties": {"id": "631", "name": "Culcha"}, "type": "Feature"}, {"geometry": {"coordinates": [-68.689072, -19.232791], "type": "Point"}, "properties": {"id": "632", "name": "Tulacagua"}, "type": "Feature"}, {"geometry": {"coordinates": [-68.720513, -19.248623], "type": "Point"}, "properties": {"id": "633", "name": "Isluga"}, "type": "Feature"}, {"geometry": {"coordinates": [-68.659547, -19.268127], "type": "Point"}, "properties": {"id": "634", "name": "Central Citani"}, "type": "Feature"}, {"geometry": {"coordinates": [-68.635928, -19.245844], "type": "Point"}, "properties": {"id": "635", "name": "Pisiga Carpa Antiguo"}, "type": "Feature"}, {"geometry": {"coordinates": [-68.637621, -19.27741], "type": "Point"}, "properties": {"id": "636", "name": "Colchane"}, "type": "Feature"}, {"geometry": {"coordinates": [-68.620749, -19.277854], "type": "Point"}, "properties": {"id": "637", "name": "Pisiga Carpa Nuevo"}, "type": "Feature"}, {"geometry": {"coordinates": [-68.651963, -19.282459], "type": "Point"}, "properties": {"id": "638", "name": "Cotasaya"}, "type": "Feature"}, {"geometry": {"coordinates": [-68.613679, -19.285969], "type": "Point"}, "properties": {"id": "639", "name": "Pisiga Centro Antiguo"}, "type": "Feature"}, {"geometry": {"coordinates": [-68.65042, -19.297521], "type": "Point"}, "properties": {"id": "640", "name": "Pisiga Centro Nuevo"}, "type": "Feature"}, {"geometry": {"coordinates": [-68.609868, -19.300308], "type": "Point"}, "properties": {"id": "641", "name": "Pisiga Choque"}, "type": "Feature"}, {"geometry": {"coordinates": [-68.928323, -19.048541], "type": "Point"}, "properties": {"id": "642", "name": "Mocomocome"}, "type": "Feature"}, {"geometry": {"coordinates": [-68.892858, -19.062871], "type": "Point"}, "properties": {"id": "643", "name": "Pansuta"}, "type": "Feature"}, {"geometry": {"coordinates": [-68.858151, -19.066195], "type": "Point"}, "properties": {"id": "644", "name": "Chinchillani"}, "type": "Feature"}, {"geometry": {"coordinates": [-68.88128, -19.076494], "type": "Point"}, "properties": {"id": "645", "name": "Virgen Del Carmen Dos"}, "type": "Feature"}, {"geometry": {"coordinates": [-68.90716, -19.119789], "type": "Point"}, "properties": {"id": "646", "name": "Virgen Del Carmen"}, "type": "Feature"}, {"geometry": {"coordinates": [-68.889806, -19.114758], "type": "Point"}, "properties": {"id": "647", "name": "Vilacollo"}, "type": "Feature"}, {"geometry": {"coordinates": [-69.440355, -19.299664], "type": "Point"}, "properties": {"id": "648", "name": "Troncales"}, "type": "Feature"}, {"geometry": {"coordinates": [-69.744832, -18.833127], "type": "Point"}, "properties": {"id": "649", "name": "Codpa"}, "type": "Feature"}, {"geometry": {"coordinates": [-69.633537, -18.762549], "type": "Point"}, "properties": {"id": "650", "name": "Cobija"}, "type": "Feature"}, {"geometry": {"coordinates": [-69.614577, -18.760941], "type": "Point"}, "properties": {"id": "651", "name": "Corralones"}, "type": "Feature"}, {"geometry": {"coordinates": [-69.61194, -18.775195], "type": "Point"}, "properties": {"id": "652", "name": "Ofrajia"}, "type": "Feature"}, {"geometry": {"coordinates": [-69.624483, -18.772643], "type": "Point"}, "properties": {"id": "653", "name": "Carijoya"}, "type": "Feature"}, {"geometry": {"coordinates": [-69.402163, -18.737775], "type": "Point"}, "properties": {"id": "654", "name": "Cascanie"}, "type": "Feature"}, {"geometry": {"coordinates": [-69.376515, -18.724604], "type": "Point"}, "properties": {"id": "655", "name": "Lagunilla"}, "type": "Feature"}, {"geometry": {"coordinates": [-69.325594, -18.713112], "type": "Point"}, "properties": {"id": "656", "name": "Guaykara"}, "type": "Feature"}, {"geometry": {"coordinates": [-69.303036, -18.728932], "type": "Point"}, "properties": {"id": "657", "name": "Castilluma"}, "type": "Feature"}, {"geometry": {"coordinates": [-69.28474, -18.743907], "type": "Point"}, "properties": {"id": "658", "name": "Itiza"}, "type": "Feature"}, {"geometry": {"coordinates": [-69.272676, -18.73412], "type": "Point"}, "properties": {"id": "659", "name": "Churecollo"}, "type": "Feature"}, {"geometry": {"coordinates": [-70.102888, -20.266989], "type": "Point"}, "properties": {"id": "660", "name": "Alto Hospicio"}, "type": "Feature"}, {"geometry": {"coordinates": [-69.967553, -20.231845], "type": "Point"}, "properties": {"id": "661", "name": "Pampa Perd\u00ddz"}, "type": "Feature"}, {"geometry": {"coordinates": [-70.056237, -20.236847], "type": "Point"}, "properties": {"id": "662", "name": "Cuesta Del Toro"}, "type": "Feature"}, {"geometry": {"coordinates": [-70.068246, -20.251045], "type": "Point"}, "properties": {"id": "663", "name": "Pilmaiqu\u00dan"}, "type": "Feature"}, {"geometry": {"coordinates": [-70.053378, -20.254486], "type": "Point"}, "properties": {"id": "664", "name": "La Azufrera"}, "type": "Feature"}, {"geometry": {"coordinates": [-70.062591, -20.285743], "type": "Point"}, "properties": {"id": "665", "name": "Santa Rosa"}, "type": "Feature"}, {"geometry": {"coordinates": [-70.056071, -20.292211], "type": "Point"}, "properties": {"id": "666", "name": "Estanque Diez Mil"}, "type": "Feature"}, {"geometry": {"coordinates": [-70.092927, -20.239081], "type": "Point"}, "properties": {"id": "667", "name": "Los C\u00bendores"}, "type": "Feature"}, {"geometry": {"coordinates": [-70.053638, -21.424925], "type": "Point"}, "properties": {"id": "668", "name": "Complejo Aduana El Loa"}, "type": "Feature"}, {"geometry": {"coordinates": [-70.090998, -21.343209], "type": "Point"}, "properties": {"id": "669", "name": "Caleta Chipana"}, "type": "Feature"}, {"geometry": {"coordinates": [-70.080476, -21.227265], "type": "Point"}, "properties": {"id": "670", "name": "Guanillos"}, "type": "Feature"}, {"geometry": {"coordinates": [-70.10751, -21.153969], "type": "Point"}, "properties": {"id": "671", "name": "San Marcos"}, "type": "Feature"}, {"geometry": {"coordinates": [-70.176479, -21.024491], "type": "Point"}, "properties": {"id": "672", "name": "R\u00ddo Seco"}, "type": "Feature"}, {"geometry": {"coordinates": [-70.132502, -21.020181], "type": "Point"}, "properties": {"id": "673", "name": "La Pescadora"}, "type": "Feature"}, {"geometry": {"coordinates": [-70.132239, -20.905493], "type": "Point"}, "properties": {"id": "674", "name": "Chanavaya"}, "type": "Feature"}, {"geometry": {"coordinates": [-70.04969, -20.873636], "type": "Point"}, "properties": {"id": "675", "name": "La California"}, "type": "Feature"}, {"geometry": {"coordinates": [-70.031528, -20.848919], "type": "Point"}, "properties": {"id": "676", "name": "Mostrenko"}, "type": "Feature"}, {"geometry": {"coordinates": [-70.029376, -20.870161], "type": "Point"}, "properties": {"id": "677", "name": "Irlanda Tres"}, "type": "Feature"}, {"geometry": {"coordinates": [-70.019139, -20.884975], "type": "Point"}, "properties": {"id": "678", "name": "Kainita"}, "type": "Feature"}, {"geometry": {"coordinates": [-70.012337, -20.898329], "type": "Point"}, "properties": {"id": "679", "name": "Victor"}, "type": "Feature"}, {"geometry": {"coordinates": [-70.000026, -20.947338], "type": "Point"}, "properties": {"id": "680", "name": "Industria Salmonera Muffler"}, "type": "Feature"}, {"geometry": {"coordinates": [-70.200419, -20.811837], "type": "Point"}, "properties": {"id": "681", "name": "C\u00df\u00b1amo"}, "type": "Feature"}, {"geometry": {"coordinates": [-70.168052, -20.782916], "type": "Point"}, "properties": {"id": "682", "name": "Patache"}, "type": "Feature"}, {"geometry": {"coordinates": [-70.185561, -20.731923], "type": "Point"}, "properties": {"id": "683", "name": "Punta Patillo Norte"}, "type": "Feature"}, {"geometry": {"coordinates": [-70.185766, -20.750285], "type": "Point"}, "properties": {"id": "684", "name": "Puerta Patillo"}, "type": "Feature"}, {"geometry": {"coordinates": [-70.18654, -20.698879], "type": "Point"}, "properties": {"id": "685", "name": "Playa Pel\u00ddcano"}, "type": "Feature"}, {"geometry": {"coordinates": [-70.1877, -20.703409], "type": "Point"}, "properties": {"id": "686", "name": "Chanavayita"}, "type": "Feature"}, {"geometry": {"coordinates": [-70.186824, -20.677473], "type": "Point"}, "properties": {"id": "687", "name": "Caleta Yapes"}, "type": "Feature"}, {"geometry": {"coordinates": [-70.181064, -20.659487], "type": "Point"}, "properties": {"id": "688", "name": "Caramucho"}, "type": "Feature"}, {"geometry": {"coordinates": [-70.189295, -20.575884], "type": "Point"}, "properties": {"id": "689", "name": "Playa Quinteros"}, "type": "Feature"}, {"geometry": {"coordinates": [-70.178511, -20.536405], "type": "Point"}, "properties": {"id": "690", "name": "Aeropuerto Diego Aracena"}, "type": "Feature"}, {"geometry": {"coordinates": [-70.17672, -20.517187], "type": "Point"}, "properties": {"id": "691", "name": "Base Aerea Los Condores"}, "type": "Feature"}, {"geometry": {"coordinates": [-70.161686, -20.483633], "type": "Point"}, "properties": {"id": "692", "name": "Sereme\u00b1o"}, "type": "Feature"}, {"geometry": {"coordinates": [-70.158556, -20.443098], "type": "Point"}, "properties": {"id": "693", "name": "Pozo Toyo"}, "type": "Feature"}, {"geometry": {"coordinates": [-70.159745, -20.416113], "type": "Point"}, "properties": {"id": "694", "name": "Los Verdes"}, "type": "Feature"}, {"geometry": {"coordinates": [-70.163298, -20.417318], "type": "Point"}, "properties": {"id": "695", "name": "Caleta Los Verdes"}, "type": "Feature"}, {"geometry": {"coordinates": [-70.156309, -20.40417], "type": "Point"},