{"features": [{"geometry": {"coordinates": [-69.245143, -19.555387], "type": "Point"}, "properties": {"id": "15", "name": "Jai\u00b1a"}, "type": "Feature"}, {"geometry": {"coordinates": [-69.225577, -19.551209], "type": "Point"}, "properties": {"id": "16", "name": "Illalla"}, "type": "Feature"}, {"geometry": {"coordinates": [-69.207822, -19.534267], "type": "Point"}, "properties": {"id": "17", "name": "Chiapa"}, "type": "Feature"}, {"geometry": {"coordinates": [-69.235849, -19.593531], "type": "Point"}, "properties": {"id": "18", "name": "Sotoca"}, "type": "Feature"}, {"geometry": {"coordinates": [-69.451414, -18.614258], "type": "Point"}, "properties": {"id": "19", "name": "Achuma"}, "type": "Feature"}, {"geometry": {"coordinates": [-69.453024, -18.622021], "type": "Point"}, "properties": {"id": "20", "name": "Cuilco"}, "type": "Feature"}, {"geometry": {"coordinates": [-69.443981, -18.62138], "type": "Point"}, "properties": {"id": "21", "name": "Upuya"}, "type": "Feature"}, {"geometry": {"coordinates": [-69.450063, -18.65837], "type": "Point"}, "properties": {"id": "22", "name": "Timalchaca"}, "type": "Feature"}, {"geometry": {"coordinates": [-69.506122, -18.623013], "type": "Point"}, "properties": {"id": "24", "name": "Chucasi\u00b1a"}, "type": "Feature"}, {"geometry": {"coordinates": [-69.498199, -18.582212], "type": "Point"}, "properties": {"id": "25", "name": "Tignamar"}, "type": "Feature"}, {"geometry": {"coordinates": [-69.515063, -18.560879], "type": "Point"}, "properties": {"id": "26", "name": "Oxa"}, "type": "Feature"}, {"geometry": {"coordinates": [-69.526623, -18.549601], "type": "Point"}, "properties": {"id": "27", "name": "Estrella"}, "type": "Feature"}, {"geometry": {"coordinates": [-69.506649, -18.568183], "type": "Point"}, "properties": {"id": "28", "name": "San Ramon"}, "type": "Feature"}, {"geometry": {"coordinates": [-69.653298, -20.73963], "type": "Point"}, "properties": {"id": "35", "name": "Ex Oficina Victoria"}, "type": "Feature"}, {"geometry": {"coordinates": [-69.875682, -18.352202], "type": "Point"}, "properties": {"id": "46", "name": "Molinos"}, "type": "Feature"}, {"geometry": {"coordinates": [-69.958703, -18.359595], "type": "Point"}, "properties": {"id": "49", "name": "Central"}, "type": "Feature"}, {"geometry": {"coordinates": [-69.743638, -18.174256], "type": "Point"}, "properties": {"id": "50", "name": "Puro Chile"}, "type": "Feature"}, {"geometry": {"coordinates": [-69.338156, -19.569876], "type": "Point"}, "properties": {"id": "65", "name": "Quebrada de Aroma"}, "type": "Feature"}, {"geometry": {"coordinates": [-69.552581, -18.350222], "type": "Point"}, "properties": {"id": "68", "name": "Murmuntani Alto"}, "type": "Feature"}, {"geometry": {"coordinates": [-69.556079, -18.3565], "type": "Point"}, "properties": {"id": "69", "name": "Ventullo"}, "type": "Feature"}, {"geometry": {"coordinates": [-69.535285, -18.393557], "type": "Point"}, "properties": {"id": "74", "name": "Chapiqui\u00b1a"}, "type": "Feature"}, {"geometry": {"coordinates": [-69.52805, -18.4297], "type": "Point"}, "properties": {"id": "77", "name": "Pachama"}, "type": "Feature"}, {"geometry": {"coordinates": [-69.51986, -18.467643], "type": "Point"}, "properties": {"id": "79", "name": "Belen"}, "type": "Feature"}, {"geometry": {"coordinates": [-69.51154, -18.456397], "type": "Point"}, "properties": {"id": "80", "name": "Opairumani"}, "type": "Feature"}, {"geometry": {"coordinates": [-69.513228, -18.46687], "type": "Point"}, "properties": {"id": "82", "name": "Quipaquipane"}, "type": "Feature"}, {"geometry": {"coordinates": [-69.493877, -18.523722], "type": "Point"}, "properties": {"id": "89", "name": "Chaijate"}, "type": "Feature"}, {"geometry": {"coordinates": [-69.506833, -18.518188], "type": "Point"}, "properties": {"id": "90", "name": "Chucurjalla"}, "type": "Feature"}, {"geometry": {"coordinates": [-69.958357, -19.458766], "type": "Point"}, "properties": {"id": "93", "name": "Tana"}, "type": "Feature"}, {"geometry": {"coordinates": [-69.948744, -19.551403], "type": "Point"}, "properties": {"id": "94", "name": "Tiliviche"}, "type": "Feature"}, {"geometry": {"coordinates": [-70.038008, -19.515112], "type": "Point"}, "properties": {"id": "96", "name": "Quiu\u00b1a Bajo"}, "type": "Feature"}, {"geometry": {"coordinates": [-69.066673, -20.820304], "type": "Point"}, "properties": {"id": "99", "name": "Cahuisa"}, "type": "Feature"}, {"geometry": {"coordinates": [-69.059673, -20.928501], "type": "Point"}, "properties": {"id": "101", "name": "Guatacondo"}, "type": "Feature"}, {"geometry": {"coordinates": [-69.59972, -20.6345], "type": "Point"}, "properties": {"id": "105", "name": "Pique Aurrer\u00df"}, "type": "Feature"}, {"geometry": {"coordinates": [-69.567747, -20.640208], "type": "Point"}, "properties": {"id": "106", "name": "Pique Chileno"}, "type": "Feature"}, {"geometry": {"coordinates": [-69.492718, -18.898357], "type": "Point"}, "properties": {"id": "107", "name": "Saguara"}, "type": "Feature"}, {"geometry": {"coordinates": [-69.442902, -18.842884], "type": "Point"}, "properties": {"id": "108", "name": "Sucuna"}, "type": "Feature"}, {"geometry": {"coordinates": [-69.509463, -18.946441], "type": "Point"}, "properties": {"id": "113", "name": "Illapata"}, "type": "Feature"}, {"geometry": {"coordinates": [-69.531637, -18.937303], "type": "Point"}, "properties": {"id": "114", "name": "Esqui\u00b1a"}, "type": "Feature"}, {"geometry": {"coordinates": [-68.950785, -19.392462], "type": "Point"}, "properties": {"id": "117", "name": "Puchuldiza"}, "type": "Feature"}, {"geometry": {"coordinates": [-68.98644, -19.398088], "type": "Point"}, "properties": {"id": "118", "name": "Lupe"}, "type": "Feature"}, {"geometry": {"coordinates": [-69.052735, -19.486001], "type": "Point"}, "properties": {"id": "119", "name": "Pingalliri"}, "type": "Feature"}, {"geometry": {"coordinates": [-69.17034, -19.77939], "type": "Point"}, "properties": {"id": "123", "name": "Sibaya"}, "type": "Feature"}, {"geometry": {"coordinates": [-69.180001, -19.784507], "type": "Point"}, "properties": {"id": "124", "name": "Limaxi\u00b1a"}, "type": "Feature"}, {"geometry": {"coordinates": [-69.223108, -19.793598], "type": "Point"}, "properties": {"id": "125", "name": "Guavi\u00b1a"}, "type": "Feature"}, {"geometry": {"coordinates": [-69.273626, -19.812322], "type": "Point"}, "properties": {"id": "126", "name": "Mocha"}, "type": "Feature"}, {"geometry": {"coordinates": [-69.257315, -18.195425], "type": "Point"}, "properties": {"id": "135", "name": "Chingani"}, "type": "Feature"}, {"geometry": {"coordinates": [-68.598499, -19.856568], "type": "Point"}, "properties": {"id": "142", "name": "Cancosa"}, "type": "Feature"}, {"geometry": {"coordinates": [-70.213086, -19.597814], "type": "Point"}, "properties": {"id": "145", "name": "Pisagua"}, "type": "Feature"}, {"geometry": {"coordinates": [-69.947118, -19.677358], "type": "Point"}, "properties": {"id": "147", "name": "Dolores"}, "type": "Feature"}, {"geometry": {"coordinates": [-69.791146, -19.864728], "type": "Point"}, "properties": {"id": "150", "name": "Vista Hermosa"}, "type": "Feature"}, {"geometry": {"coordinates": [-69.779456, -20.400426], "type": "Point"}, "properties": {"id": "156", "name": "Planta Diana"}, "type": "Feature"}, {"geometry": {"coordinates": [-69.638502, -20.621792], "type": "Point"}, "properties": {"id": "161", "name": "Ex Estaci\u00ben Pintados"}, "type": "Feature"}, {"geometry": {"coordinates": [-68.831009, -20.037503], "type": "Point"}, "properties": {"id": "162", "name": "Collacagua"}, "type": "Feature"}, {"geometry": {"coordinates": [-69.595093, -18.334471], "type": "Point"}, "properties": {"id": "165", "name": "Zapahuira"}, "type": "Feature"}, {"geometry": {"coordinates": [-69.587969, -18.337321], "type": "Point"}, "properties": {"id": "168", "name": "Paradero Zapahuira"}, "type": "Feature"}, {"geometry": {"coordinates": [-69.624027, -18.406676], "type": "Point"}, "properties": {"id": "170", "name": "Copaquilla"}, "type": "Feature"}, {"geometry": {"coordinates": [-69.578807, -18.230594], "type": "Point"}, "properties": {"id": "172", "name": "Aroma"}, "type": "Feature"}, {"geometry": {"coordinates": [-69.601816, -18.263811], "type": "Point"}, "properties": {"id": "173", "name": "Socoroma"}, "type": "Feature"}, {"geometry": {"coordinates": [-69.724445, -17.775144], "type": "Point"}, "properties": {"id": "175", "name": "Tacora"}, "type": "Feature"}, {"geometry": {"coordinates": [-69.687621, -18.859396], "type": "Point"}, "properties": {"id": "176", "name": "Chucuyo"}, "type": "Feature"}, {"geometry": {"coordinates": [-69.849504, -19.004275], "type": "Point"}, "properties": {"id": "178", "name": "Taltape"}, "type": "Feature"}, {"geometry": {"coordinates": [-69.886238, -19.242376], "type": "Point"}, "properties": {"id": "222", "name": "Liga"}, "type": "Feature"}, {"geometry": {"coordinates": [-69.798211, -19.264888], "type": "Point"}, "properties": {"id": "223", "name": "Suca"}, "type": "Feature"}, {"geometry": {"coordinates": [-69.6847, -19.181199], "type": "Point"}, "properties": {"id": "230", "name": "Mi\u00b1imi\u00b1e"}, "type": "Feature"}, {"geometry": {"coordinates": [-69.598068, -19.091625], "type": "Point"}, "properties": {"id": "234", "name": "Mi\u00b1ita"}, "type": "Feature"}, {"geometry": {"coordinates": [-69.608124, -19.108711], "type": "Point"}, "properties": {"id": "235", "name": "Pampa del Fraile"}, "type": "Feature"}, {"geometry": {"coordinates": [-69.545186, -19.115594], "type": "Point"}, "properties": {"id": "236", "name": "Champaja"}, "type": "Feature"}, {"geometry": {"coordinates": [-69.709013, -18.499595], "type": "Point"}, "properties": {"id": "238", "name": "Cabuza"}, "type": "Feature"}, {"geometry": {"coordinates": [-69.765664, -18.553785], "type": "Point"}, "properties": {"id": "239", "name": "Santuario Livilcar"}, "type": "Feature"}, {"geometry": {"coordinates": [-69.827372, -18.588129], "type": "Point"}, "properties": {"id": "240", "name": "Ausipar Paradero"}, "type": "Feature"}, {"geometry": {"coordinates": [-69.7804, -18.570396], "type": "Point"}, "properties": {"id": "242", "name": "Humagata"}, "type": "Feature"}, {"geometry": {"coordinates": [-69.941646, -18.579636], "type": "Point"}, "properties": {"id": "243", "name": "Albarrac\u00ddn"}, "type": "Feature"}, {"geometry": {"coordinates": [-69.977681, -18.576527], "type": "Point"}, "properties": {"id": "244", "name": "Pampa Algodonal"}, "type": "Feature"}, {"geometry": {"coordinates": [-69.988744, -18.583861], "type": "Point"}, "properties": {"id": "245", "name": "Surire"}, "type": "Feature"}, {"geometry": {"coordinates": [-70.000014, -18.584841], "type": "Point"}, "properties": {"id": "246", "name": "Pan de Az\u00b7car"}, "type": "Feature"}, {"geometry": {"coordinates": [-69.393409, -20.244004], "type": "Point"}, "properties": {"id": "260", "name": "Cantera Carlos Cordano"}, "type": "Feature"}, {"geometry": {"coordinates": [-69.18555, -20.133101], "type": "Point"}, "properties": {"id": "262", "name": "Macaya"}, "type": "Feature"}, {"geometry": {"coordinates": [-69.21566, -20.074786], "type": "Point"}, "properties": {"id": "269", "name": "Mami\u00b1a"}, "type": "Feature"}, {"geometry": {"coordinates": [-69.205659, -20.01501], "type": "Point"}, "properties": {"id": "270", "name": "Parca"}, "type": "Feature"}, {"geometry": {"coordinates": [-69.36229, -20.066294], "type": "Point"}, "properties": {"id": "272", "name": "Quipisca"}, "type": "Feature"}, {"geometry": {"coordinates": [-69.120907, -19.985446], "type": "Point"}, "properties": {"id": "274", "name": "Bajada Uno"}, "type": "Feature"}, {"geometry": {"coordinates": [-69.210627, -20.095833], "type": "Point"}, "properties": {"id": "278", "name": "Quebrada Imagua"}, "type": "Feature"}, {"geometry": {"coordinates": [-69.208518, -18.878265], "type": "Point"}, "properties": {"id": "291", "name": "Parcohaylla"}, "type": "Feature"}, {"geometry": {"coordinates": [-69.453669, -17.95711], "type": "Point"}, "properties": {"id": "293", "name": "Colpitas"}, "type": "Feature"}, {"geometry": {"coordinates": [-69.322118, -17.912209], "type": "Point"}, "properties": {"id": "294", "name": "Nasahuento"}, "type": "Feature"}, {"geometry": {"coordinates": [-69.332128, -17.898491], "type": "Point"}, "properties": {"id": "296", "name": "Choyota"}, "type": "Feature"}, {"geometry": {"coordinates": [-69.348366, -17.899419], "type": "Point"}, "properties": {"id": "297", "name": "Cayco"}, "type": "Feature"}, {"geometry": {"coordinates": [-69.308878, -17.88705], "type": "Point"}, "properties": {"id": "298", "name": "Palcata"}, "type": "Feature"}, {"geometry": {"coordinates": [-69.312506, -17.819365], "type": "Point"}, "properties": {"id": "300", "name": "Challuma"}, "type": "Feature"}], "type": "FeatureCollection"}